dba_name,postal_code,poi_cbg,visitor_home_cbgs,visitor_daytime_cbgs,naics_description,address,lat,lng,Incoming_Visitor_home_census_blocks,POI_risk_final
(W)RIGHT ON COMMUNICATIONS INC,92037,60730082002.0,"{""060730178113"":4,""530610532023"":4,""060590525272"":4,""060379200152"":4,""420199124023"":4,""060650420052"":4}","{""060730085061"":4,""040131048011"":4,""530530734044"":4,""060730171071"":4,""060730185143"":4,""132930105003"":4,""060590525272"":4}",PUBLIC RELATIONS AGENCIES,PROSPECT ST,32.84892931,-117.27257009999998,"{'06073017811': 4, '53061053202': 4, '06059052527': 4, '06037920015': 4, '42019912402': 4, '06065042005': 4}",0.11190944320232954
1 A LIVESCAN SAN DIEGO,92116,60730018006.0,"{""060730017003"":4,""060730170212"":4}","{""060730170542"":4,""060590525274"":4,""060650418081"":4}","ALL OTH PROF, SCIENTIFIC & TECHNICAL SERVICES",ADAMS AVE,32.76343179,-117.12493909999998,"{'06073001700': 4, '06073017021': 4}",0.2860023904491231
1 AMERICAN LIVESCAN,92123,60730093064.0,"{""060730031131"":4,""060730121021"":4,""471570201021"":4,""060730154052"":4,""060730031033"":4,""060730157031"":4,""060730030031"":4,""061130103021"":4,""060730019002"":4}","{""060730071003"":5,""060730170313"":4,""060730131021"":4,""060730203052"":4,""060730101091"":4,""060730092011"":4,""060730095052"":4,""060730095111"":4,""060730170562"":4}",INVESTIGATION SERVICES,MURPHY CANYON RD,32.80893652,-117.1162847,"{'06073003113': 4, '06073012102': 4, '47157020102': 4, '06073015405': 4, '06073003103': 4, '06073015703': 4, '06073003003': 4, '06113010302': 4, '06073001900': 4}",0.934388246863052
113FM RADIO NETWORK,92101,60730052001.0,"{""060730052002"":4,""060650427281"":4}","{""060730052001"":5,""060730170421"":4,""320030034151"":4,""060730100141"":4,""060650427281"":4,""060730054001"":4}",BROADCASTING & TELECOMMUNICATIONS,15TH ST,32.714123,-117.15039,"{'06073005200': 4, '06065042728': 4}",0.4496715709632427
1626 WEALTH MANAGEMENT INC,92130,60730083332.0,"{""060730083331"":6,""060730083353"":4,""060590875033"":4,""060730083302"":4}","{""060374326012"":4,""060730200172"":4}",INVESTMENT BANKING & SECURITIES DEALING,CARMEL MOUNTAIN RD,32.91859078,-117.2335608,"{'06073008333': 6, '06073008335': 4, '06059087503': 4, '06073008330': 4}",0.3415215436082698
1798 LLC,92037,60730082002.0,"{""060590320441"":4,""060730083651"":4,""060730156013"":4,""060650505005"":4,""060730133101"":4,""060730081021"":4,""060590019032"":4}","{""060730083032"":4,""040134226393"":4,""060730136044"":4,""040130715161"":4,""260992218001"":4,""060730027121"":4,""060730039024"":4,""060590019032"":4}",CONSULTING SERVICES,PROSPECT ST,32.8464722,-117.2757287,"{'06059032044': 4, '06073008365': 4, '06073015601': 4, '06065050500': 4, '06073013310': 4, '06073008102': 4, '06059001903': 4}",0.6192478543753586
1904 ENTERTAINMENT LLC,92101,60730052001.0,"{""060730099021"":4,""060730027034"":4,""060670051012"":4,""060730056002"":4,""060730052001"":4}","{""060730127001"":4,""060730133131"":4,""530530609051"":4,""060650432402"":4,""060730032111"":4}",RETAIL TRADE,BROADWAY nan,32.71575,-117.149414,"{'06073009902': 4, '06073002703': 4, '06067005101': 4, '06073005600': 4, '06073005200': 4}",0.7855147695115916
1CALL4CARE LLC,92111,60730085111.0,"{""060730027074"":4}",{},CONSULTING SERVICES,VICKERS ST,32.82722887,-117.1464092,{'06073002707': 4},0.4171773187398767
2-D STAGE LIGHTING ELECTRIC INC,92154,60730132051.0,"{""060730101062"":4}","{""060730101062"":4,""060730023023"":4}",ELECTRICAL CONTRACTORS,VERUS ST,32.59337678,-117.0874273,{'06073010106': 4},0.5624970826698741
2013061391,92037,60730083611.0,"{""060730083621"":4,""060730089014"":4,""060730085012"":4,""482015108002"":4}","{""060730031092"":4,""482015108003"":4,""060730083611"":4,""060710073023"":4,""060730218001"":4,""060650430082"":4}",FULL-SERVICE RESTAURANTS,HOLIDAY CT,32.87024508,-117.23364,"{'06073008362': 4, '06073008901': 4, '06073008501': 4, '48201510800': 4}",0.3658482511076248
2321 5TH AVE LLC,92101,60730059001.0,"{""060730040002"":4,""060730058001"":4,""060730032093"":4}","{""060590015043"":4,""060730032093"":4,""517600605001"":4}",LESSORS OF NONRES BLDG (EXC MINIWAREHOUSE),5TH AVE,32.7295183,-117.16003700000002,"{'06073004000': 4, '06073005800': 4, '06073003209': 4}",0.7774378836979516
24 HOUR FITNESS,92119,60730098041.0,"{""060730150004"":6,""060730140022"":4,""060730028034"":4,""060730136051"":4,""060730136013"":4,""060730098011"":4,""060730147001"":4,""060730162012"":4,""060730096042"":4,""060730098043"":4,""060730138011"":4,""060730135032"":4,""060730161002"":4,""060730098041"":4,""060730153012"":4,""060730150002"":4,""060730035013"":4}","{""060730157042"":4,""060730085111"":4,""260992308002"":4,""060730098043"":4,""060730148042"":4,""060730166054"":4,""060730170423"":4,""060730150004"":4,""060730161002"":4,""060730098053"":4,""060730150002"":4,""060730135032"":4,""060730170473"":4,""060730140022"":4,""060730035013"":4,""060730028042"":4,""060730162013"":4,""060730142001"":4}",FITNESS & RECREATIONAL SPORTS CENTERS,NAVAJO RD,32.80279611,-117.0065689,"{'06073015000': 6, '06073014002': 4, '06073002803': 4, '06073013605': 4, '06073013601': 4, '06073009801': 4, '06073014700': 4, '06073016201': 4, '06073009604': 4, '06073009804': 4, '06073013801': 4, '06073013503': 4, '06073016100': 4, '06073015301': 4, '06073003501': 4}",0.993928078505519
24 HOUR FITNESS 872,92113,60730033012.0,"{""060730144002"":5,""060730201081"":5,""060730141021"":4,""060730032011"":4,""060730130003"":4,""060730065001"":4,""170978630031"":4,""060730032082"":4,""060730035022"":4,""060730042001"":4,""060650427291"":4,""060730010004"":4,""060730031032"":4,""060730085043"":4}","{""060730004002"":7,""060730085111"":6,""060730054004"":5,""060730127001"":4,""060730039022"":4,""060730118012"":4,""060730083501"":4,""060730046001"":4,""060730040003"":4,""060730027051"":4,""060730026021"":4,""060730079034"":4,""060730100142"":4,""060730035012"":4,""060730033042"":4,""060730033012"":4,""170978630031"":4,""060730079032"":4}",FITNESS & RECREATIONAL SPORTS CENTERS,IMPERIAL AVE,32.70408544,-117.1029541,"{'06073014400': 5, '06073020108': 5, '06073014102': 4, '06073003201': 4, '06073013000': 4, '06073006500': 4, '17097863003': 4, '06073003208': 4, '06073003502': 4, '06073004200': 4, '06065042729': 4, '06073001000': 4, '06073003103': 4, '06073008504': 4}",0.9814795118171996
24 HOUR FITNESS 888,92122,60730083402.0,"{""060730083552"":8,""060730186112"":8,""020200025022"":4,""060730056002"":4,""060730083432"":4}","{""060730083121"":7,""060730056002"":4,""060730083331"":4}",FITNESS & RECREATIONAL SPORTS CENTERS,LA JOLLA VILLAGE DR,32.87322566,-117.2113206,"{'06073008355': 8, '06073018611': 8, '02020002502': 4, '06073005600': 4, '06073008343': 4}",0.7553111760873009
28TH OIL INC,92113,60730039023.0,"{""060730148033"":19,""060730108002"":4,""060730027034"":4,""060730134213"":4,""060730093041"":4}","{""060730148033"":12,""060730050001"":5,""060730038001"":4,""530350814001"":4,""060730132051"":4,""060730032022"":4}",GASOLINE STATIONS,S 28TH ST,32.69443048,-117.1337623,"{'06073014803': 19, '06073010800': 4, '06073002703': 4, '06073013421': 4, '06073009304': 4}",0.9061414593920684
3 L LABORATORIES,92121,60730083461.0,"{""060730083631"":4}",{},MISCELLANEOUS MFG,LUSK BLVD,32.90185269,-117.2010206,{'06073008363': 4},0.08453785721694773
30TH STREET LAUNDRY,92104,60730014002.0,"{""060730079082"":4,""060730015002"":4,""060730116011"":4}","{""060730050001"":5,""060730042002"":4,""060730097042"":4}",COIN-OPERATED LAUNDRIES & DRYCLEANERS,30TH ST,32.74253884,-117.1300086,"{'06073007908': 4, '06073001500': 4, '06073011601': 4}",0.6726493398063075
4 SEASON MARKET,92115,60730028031.0,"{""060730166093"":4,""060650432351"":4}","{""060650432351"":4}","BEER, WINE & LIQUOR STORES",EL CAJON BLVD,32.75698532,-117.0857366,"{'06073016609': 4, '06065043235': 4}",0.15713477596051614
4797 RUFFNER STREET LLC,92111,60730085111.0,"{""060730191013"":4}","{""060730203071"":7,""060730085111"":6,""060730095041"":4,""040159517002"":4,""060730090001"":4}",OTHER ACTIVITIES RELATED TO REAL ESTATE,RUFFNER ST,32.82892161,-117.1583871,{'06073019101': 4},0.2669652831367466
4JS MINI MART,92105,60730021003.0,"{""060730021004"":4,""060730083541"":4,""060730039022"":4}","{""060730022022"":8,""060730027051"":4,""060730039022"":4,""060730083541"":4,""060730189031"":4}","BEER, WINE & LIQUOR STORES",EL CAJON BLVD,32.75521694,-117.1073743,"{'06073002100': 4, '06073008354': 4, '06073003902': 4}",0.6392005634181124
4S PIZZERIA LLC,92127,60730170321.0,"{""060730170301"":9,""060730170313"":4,""060730170321"":4,""060730170304"":4}","{""060730170301"":9,""060730170321"":5,""060730202142"":4,""060730083501"":4}",FOOD SERVICES & DRINKING PLACES,DOVE CANYON RD,33.01501451,-117.11188,"{'06073017030': 9, '06073017031': 4, '06073017032': 4}",0.40015015716316493
56143: BUSINESS SERVICE CENTERS,92106,60730214001.0,"{""060730165031"":4,""060730073023"":4,""060730142003"":4,""060730101033"":4,""060650427412"":4}","{""060730197021"":4,""060730072002"":4,""060730097031"":4,""060730083101"":4,""060730220002"":4,""060730142003"":4,""060730101033"":4}",OTH BUSINESS SERVICE CENTERS (INCL COPY SHOPS,ROSECRANS ST,32.73550444,-117.2198575,"{'06073016503': 4, '06073007302': 4, '06073014200': 4, '06073010103': 4, '06065042741': 4}",0.7905315534241972
619 IT INC,92123,60730085111.0,"{""060730200273"":6,""060730097053"":4,""060730170091"":4,""060730151002"":4}","{""060730204043"":4,""060730083492"":4,""060730175012"":4,""060730083473"":4}",OTHER COMPUTER RELATED SERVICES,MURPHY CANYON RD,32.82932678,-117.1198491,"{'06073020027': 6, '06073009705': 4, '06073017009': 4, '06073015100': 4}",0.5937575994809151
619 MOTOR SPORTS,92113,60730039023.0,"{""060730033042"":4,""060730193013"":4,""060730133101"":4,""060590864051"":4,""060730207091"":4,""060730134213"":4,""060730038001"":4}","{""060730134213"":6,""060730039023"":4,""060730040002"":4}",ALL OTHER AUTOMOTIVE R&M,MAIN ST,32.69132336,-117.123679,"{'06073003304': 4, '06073019301': 4, '06073013310': 4, '06059086405': 4, '06073020709': 4, '06073013421': 4, '06073003800': 4}",0.8563968401939676
7 ELEVEN  2131 35860A,92103,60730004001.0,"{""060730083501"":5,""060730008004"":4,""060730025013"":4}","{""060730032082"":4}",CONVENIENCE STORES,WASHINGTON ST,32.74996403,-117.1633238,"{'06073008350': 5, '06073000800': 4, '06073002501': 4}",0.5767777580640411
7 ELEVEN #2111-13596A,92109,60730079081.0,"{""060730166123"":4,""060730216001"":4,""060730158021"":4}","{""360470406002"":6,""060730025022"":4}",CONVENIENCE STORES,BALBOA AVE,32.79920749,-117.234631,"{'06073016612': 4, '06073021600': 4, '06073015802': 4}",0.5116637525441441
7 ELEVEN 18710D,92103,60730060001.0,"{""060730170552"":4}","{""060730062001"":4}",CONVENIENCE STORES,SPRUCE ST,32.73876692,-117.1609645,{'06073017055': 4},0.12048153842601915
7 ELEVEN 2111 13659G,92115,60730028031.0,"{""060730040001"":4,""060730027102"":4,""060730026013"":4,""060730028031"":4,""060730168024"":4}","{""060730028042"":4,""060730089021"":4,""060730027084"":4,""060730027121"":4}",CONVENIENCE STORES,EL CAJON BLVD,32.75728858,-117.0835314,"{'06073004000': 4, '06073002710': 4, '06073002601': 4, '06073002803': 4, '06073016802': 4}",0.8955471419928792
7 ELEVEN 33542,92123,60730085111.0,"{""060730095021"":5,""060730085111"":5,""060730146012"":5,""060730101042"":4,""060730134092"":4,""060730165041"":4,""060730095061"":4,""060730174042"":4,""060730168091"":4,""060730086001"":4,""060730133101"":4,""060730100142"":4,""060730094001"":4,""060730044002"":4,""060730020012"":4,""060730208101"":4,""060730168073"":4,""060650432793"":4,""060730095054"":4,""120970408042"":4,""060730169012"":4,""060730095022"":4,""060730095052"":4}","{""060730085111"":21,""060730094001"":4,""060730083412"":4,""060730201061"":4,""060730098012"":4,""060375004032"":4,""060730166093"":4,""170978609041"":4,""060730212021"":4,""060730027092"":4,""060730024021"":4,""060730095021"":4,""060730155012"":4,""060650504001"":4,""060730027111"":4,""060730095054"":4,""060730093013"":4,""060730174042"":4,""060730152002"":4}",CONVENIENCE STORES,CLAIREMONT MESA BLVD,32.83136039,-117.1313495,"{'06073009502': 5, '06073008511': 5, '06073014601': 5, '06073010104': 4, '06073013409': 4, '06073016504': 4, '06073009506': 4, '06073017404': 4, '06073016809': 4, '06073008600': 4, '06073013310': 4, '06073010014': 4, '06073009400': 4, '06073004400': 4, '06073002001': 4, '06073020810': 4, '06073016807': 4, '06065043279': 4, '06073009505': 4, '12097040804': 4, '06073016901': 4}",0.9953144410156632
7 ELEVEN 34235,92110,60730066001.0,"{""060730156021"":4,""080690011141"":4,""040119602003"":4,""060730134012"":4}","{""060710021101"":4}",CONVENIENCE STORES,MIDWAY DR,32.74575292,-117.1999322,"{'06073015602': 4, '08069001114': 4, '04011960200': 4, '06073013401': 4}",0.5678666991405438
7 ELEVEN 36751B,92120,60730096044.0,"{""060730096034"":4}","{""060730096034"":7}",CONVENIENCE STORES,MISSION GORGE RD,32.78109156,-117.1012925,{'06073009603': 4},0.26516966133976383
7 ELEVEN 38052A,92104,60730012003.0,"{""060730059003"":4,""060371066452"":4,""060730025012"":4,""060730030031"":4}","{""060730125012"":4}",CONVENIENCE STORES,EL CAJON BLVD,32.75535815,-117.1335878,"{'06073005900': 4, '06037106645': 4, '06073002501': 4, '06073003003': 4}",0.7581947814387018
7 ELEVEN @2131-29370D,92154,60730101062.0,"{""060730101062"":4}","{""060730101062"":4,""060730104022"":4}",CONVENIENCE STORES,CORONADO AVE,32.5760605,-117.0795728,{'06073010106': 4},0.5624970826698741
7 ELEVEN STORE #17825F,92173,60730100131.0,"{""060730126004"":7,""060730132061"":7,""060730100132"":5,""060730100123"":4,""060730100131"":4,""060730083412"":4,""060730022011"":4,""060730101112"":4,""060730100053"":4}","{""060730100132"":6,""060730134192"":4,""060730022011"":4,""060730101063"":4,""060730100151"":4,""060730126004"":4,""060730100123"":4}",CONVENIENCE STORES,W SAN YSIDRO BLVD,32.554134600000005,-117.0477518,"{'06073012600': 7, '06073013206': 7, '06073010013': 5, '06073010012': 4, '06073008341': 4, '06073002201': 4, '06073010111': 4, '06073010005': 4}",0.998049689543287
7 ELEVEN STORE #27163E,92154,60730101071.0,"{""060730133141"":4,""060730203041"":4,""060730101071"":4}","{""060730101071"":4}",CONVENIENCE STORES,PALM AVE,32.583463800000004,-117.0845125,"{'06073013314': 4, '06073020304': 4, '06073010107': 4}",0.7587364160776067
7 ELEVEN STORE 13633F,92115,60730029042.0,"{""060730029022"":4,""340090209022"":4,""060730027022"":4}","{""060730029022"":4}",CONVENIENCE STORES,COLLEGE AVE,32.77166228,-117.0698906,"{'06073002902': 4, '34009020902': 4, '06073002702': 4}",0.6388370375859037
7 ELEVEN STORE 231-34700,92173,60730100151.0,"{""060730146013"":4}",{},CONVENIENCE STORES,E SAN YSIDRO BLVD,32.5470885,-117.0342737,{'06073014601': 4},0.14051610963725014
7 ELEVEN STORE 27263E,92120,60730096043.0,"{""060730132034"":4,""060730096034"":4,""060730095091"":4,""060730206024"":4}","{""060730116021"":4,""060730096043"":4,""060730095091"":4}",CONVENIENCE STORES,MISSION GORGE RD,32.78983089,-117.0976372,"{'06073013203': 4, '06073009603': 4, '06073009509': 4, '06073020602': 4}",0.7346622746699564
7 ELEVEN STORE 33542C,92123,60730085111.0,"{""060730095021"":5,""060730085111"":5,""060730146012"":5,""060730101042"":4,""060730134092"":4,""060730165041"":4,""060730095061"":4,""060730174042"":4,""060730168091"":4,""060730086001"":4,""060730133101"":4,""060730100142"":4,""060730094001"":4,""060730044002"":4,""060730020012"":4,""060730208101"":4,""060730168073"":4,""060650432793"":4,""060730095054"":4,""120970408042"":4,""060730169012"":4,""060730095022"":4,""060730095052"":4}","{""060730085111"":21,""060730094001"":4,""060730083412"":4,""060730201061"":4,""060730098012"":4,""060375004032"":4,""060730166093"":4,""170978609041"":4,""060730212021"":4,""060730027092"":4,""060730024021"":4,""060730095021"":4,""060730155012"":4,""060650504001"":4,""060730027111"":4,""060730095054"":4,""060730093013"":4,""060730174042"":4,""060730152002"":4}",CONVENIENCE STORES,CLAIREMONT MESA BLVD,32.83136039,-117.1313495,"{'06073009502': 5, '06073008511': 5, '06073014601': 5, '06073010104': 4, '06073013409': 4, '06073016504': 4, '06073009506': 4, '06073017404': 4, '06073016809': 4, '06073008600': 4, '06073013310': 4, '06073010014': 4, '06073009400': 4, '06073004400': 4, '06073002001': 4, '06073020810': 4, '06073016807': 4, '06065043279': 4, '06073009505': 4, '12097040804': 4, '06073016901': 4}",0.9953144410156632
7 ELEVEN STORE 33992,92116,60730012002.0,"{""060730139061"":4}","{""060730012002"":4,""060730139061"":4,""060730098024"":4}",CONVENIENCE STORES,MEADE AVE,32.7570267,-117.1297659,{'06073013906': 4},0.3703774721231087
7-ELEVEN 27664C,92102,60730041002.0,"{""060730211001"":5,""060730163012"":4,""060730164021"":4,""060730212041"":4,""060730040002"":4,""060730041004"":4}","{""060730052001"":4,""060730164021"":4}",CONVENIENCE STORES,BROADWAY nan,32.7157517,-117.1406799,"{'06073021100': 5, '06073016301': 4, '06073016402': 4, '06073021204': 4, '06073004000': 4, '06073004100': 4}",0.9759179945258846
7-ELEVEN 32290B,92154,60730100151.0,"{""060730089021"":8,""060730133031"":4,""060730100142"":4,""060730131022"":4,""060730132062"":4,""060730030042"":4,""060730133131"":4,""060730078002"":4}","{""060730089021"":6,""060650433141"":4,""060650427152"":4,""060730132062"":4,""060730025023"":4,""060730219002"":4,""060730100142"":4,""060730020012"":4,""060730100053"":4,""060730133031"":4}",CONVENIENCE STORES,OTAY MESA RD,32.56769539,-116.9625718,"{'06073008902': 8, '06073013303': 4, '06073010014': 4, '06073013102': 4, '06073013206': 4, '06073003004': 4, '06073013313': 4, '06073007800': 4}",0.9799051613970874
7-ELEVEN 33694,92120,60730096041.0,"{""060730096041"":4,""060730096024"":4,""060730208092"":4,""060730139081"":4,""060730097032"":4,""060730097033"":4}","{""060730096044"":4,""060730208092"":4,""060375401024"":4,""060730040003"":4,""060730096041"":4,""060730146021"":4,""060290055083"":4,""060375004032"":4,""060730091061"":4,""060730096024"":4,""060730097033"":4,""060730159012"":4,""060730098011"":4}",CONVENIENCE STORES,WARING RD,32.79084911,-117.08265,"{'06073009604': 4, '06073009602': 4, '06073020809': 4, '06073013908': 4, '06073009703': 4}",0.7094314437162119
7-ELEVEN 34243,92110,60730065001.0,"{""060730034041"":4}",{},CONVENIENCE STORES,SPORTS ARENA BLVD,32.75216393,-117.2062156,{'06073003404': 4},0.36924516891787307
7-ELEVEN STORE 13623,92109,60730079071.0,"{""060730079071"":4}","{""060730079071"":4,""060730029043"":4,""060730175011"":4}",CONVENIENCE STORES,GARNET AVE,32.79855599,-117.2462117,{'06073007907': 4},0.24488988249658886
7-ELEVEN STORE 22872-D,92106,60730214001.0,"{""060730214001"":8,""060730069001"":4,""060650507003"":4,""320310022071"":4,""060650435122"":4,""230310235001"":4,""060730100091"":4,""320030029612"":4}","{""060730214001"":5,""060730214003"":4,""060730003004"":4,""410390022023"":4,""060730100091"":4,""060650435122"":4}",CONVENIENCE STORES,ROSECRANS ST,32.73013431,-117.2245695,"{'06073021400': 8, '06073006900': 4, '06065050700': 4, '32031002207': 4, '06065043512': 4, '23031023500': 4, '06073010009': 4, '32003002961': 4}",0.7852455029479519
7-ELEVEN STORE 37624B,92154,60730100102.0,"{""060730100122"":6,""060730101092"":6,""060730133072"":5,""060730134161"":5,""060730100012"":4,""040134202083"":4,""060590320133"":4,""060730100011"":4,""060730101091"":4,""060730100092"":4,""060730100142"":4,""060730073011"":4,""060730133061"":4,""060730133102"":4,""060730134092"":4,""060730133131"":4,""060730133033"":4,""060730100102"":4,""060730105011"":4,""060730132041"":4}","{""060730133131"":6,""060730100092"":6,""060730135031"":5,""060730100034"":4,""060730134161"":4,""060730133061"":4,""060730100103"":4,""060730200292"":4,""060730100142"":4,""060730132041"":4,""060730133102"":4,""201550012002"":4,""060730130003"":4,""060730032042"":4,""060730134092"":4,""060730093042"":4,""060730100102"":4,""060730089021"":4,""060730147002"":4,""060730101091"":4,""060730102001"":4,""060730150002"":4}",CONVENIENCE STORES,PALM AVE,32.5833988,-117.0624919,"{'06073010012': 6, '06073010109': 6, '06073013307': 5, '06073013416': 5, '06073010001': 4, '04013420208': 4, '06059032013': 4, '06073010009': 4, '06073010014': 4, '06073007301': 4, '06073013306': 4, '06073013310': 4, '06073013409': 4, '06073013313': 4, '06073013303': 4, '06073010010': 4, '06073010501': 4, '06073013204': 4}",0.9999806007221016
74 SUPPLY COMPANY,92126,60730170561.0,"{""060730092022"":6,""060650432543"":5,""060730104011"":4,""060730027031"":4,""060730170561"":4,""060590992441"":4,""060730133131"":4,""060730170521"":4,""060730124022"":4,""060730134093"":4,""060730083352"":4,""060730194032"":4,""060730168023"":4,""060730200211"":4}","{""060730170561"":9,""060730170521"":6,""060730194032"":4,""060730027031"":4,""060730165044"":4,""060730083481"":4,""060730170361"":4,""060730027071"":4,""060730134093"":4}",RETAIL SALES VIA INTERNET/WEBSITES,RANCHO CARMEL DR,32.9837929,-117.0805122,"{'06073009202': 6, '06065043254': 5, '06073010401': 4, '06073002703': 4, '06073017056': 4, '06059099244': 4, '06073013313': 4, '06073017052': 4, '06073012402': 4, '06073013409': 4, '06073008335': 4, '06073019403': 4, '06073016802': 4, '06073020021': 4}",0.9734122693233158
76 FRAH MINI MARKET,92115,60730023021.0,"{""050070208052"":4,""060730085053"":4,""060730096043"":4,""060730027102"":4,""390490102001"":4,""060730019001"":4}","{""060730095091"":5,""060730034011"":4,""060730026022"":4,""060730026023"":4,""060730147001"":4,""060730026021"":4}",CONVENIENCE STORES,EL CAJON BLVD,32.75502414,-117.0993697,"{'05007020805': 4, '06073008505': 4, '06073009604': 4, '06073002710': 4, '39049010200': 4, '06073001900': 4}",0.5991309501668554
7776 SIERRA MAR INC,92126,60730083501.0,"{""060730208092"":6,""060730168091"":4,""060730083573"":4}","{""060730083501"":4}",OTHER FINANCIAL INVESTMENT ACTIVITIES,ARJONS DR,32.89449055,-117.1482697,"{'06073020809': 6, '06073016809': 4, '06073008357': 4}",0.5471746493428072
828 EVENTS INC,92106,60730214001.0,"{""060730069002"":4,""060730093062"":4,""060730093052"":4,""060730170431"":4,""060730093064"":4,""060730031071"":4,""060730095101"":4,""060730168101"":4}","{""060730093052"":4,""060730085061"":4,""060650427302"":4,""060730168101"":4,""060730170091"":4,""060650432652"":4,""480291201001"":4}",RENTAL & LEASING SERVICES,HISTORIC DECATUR RD,32.74035787,-117.2103883,"{'06073006900': 4, '06073009306': 4, '06073009305': 4, '06073017043': 4, '06073003107': 4, '06073009510': 4, '06073016810': 4}",0.7753882629101666
860 GARNET OPERATIONS LLC,92109,60730079052.0,"{""481872106043"":5,""060730008003"":4,""060730083103"":4,""060730051002"":4,""060730198043"":4,""060730170392"":4,""060730079102"":4,""060650430012"":4,""060730139072"":4,""150030074001"":4,""060590421142"":4,""060730078001"":4,""060730079052"":4}","{""060730079031"":6,""060730170472"":4,""060730198043"":4,""060730034014"":4,""320030058081"":4,""060590421142"":4,""150030074001"":4,""060730020022"":4,""060730091071"":4,""060730085033"":4,""060650430012"":4,""060650432202"":4,""060730170392"":4,""060730200172"":4,""060730087022"":4,""060730139072"":4,""060730118022"":4,""060730099021"":4,""060730083492"":4}",FOOD SERVICES & DRINKING PLACES,GARNET AVE,32.79685643,-117.2544023,"{'48187210604': 5, '06073000800': 4, '06073008310': 4, '06073005100': 4, '06073019804': 4, '06073017039': 4, '06073007910': 4, '06065043001': 4, '06073013907': 4, '15003007400': 4, '06059042114': 4, '06073007800': 4, '06073007905': 4}",0.9109028398305968
9 SPA,92109,60730078002.0,"{""060770052063"":4,""060730085024"":4}","{""060730083013"":4,""060730015003"":4}",MASSAGE PARLORS,GARNET AVE,32.805733399999994,-117.2208671,"{'06077005206': 4, '06073008502': 4}",0.09985791346349736
911 STUDIO SALON,91910,60730134213.0,"{""060730134161"":4}",{},MISCELLANEOUS STORE RETAILERS,OTAY LAKES RD,32.64580559,-117.0010341,{'06073013416': 4},0.31080076285232194
94TH AERO SQUADRON,92123,60730085111.0,"{""060730190021"":4,""060730097041"":4,""060730220002"":4,""060730166051"":4,""060590755151"":4,""060730221001"":4}","{""060730085111"":4,""060730168091"":4,""060590755151"":4,""060730220002"":4,""060730031153"":4}",FULL-SERVICE RESTAURANTS,BALBOA AVE,32.8208586,-117.137142,"{'06073019002': 4, '06073009704': 4, '06073022000': 4, '06073016605': 4, '06059075515': 4, '06073022100': 4}",0.7323881218389516
99 CENTS ONLY STORES LLC,92126,60730083573.0,"{""060730083471"":7,""060730083472"":6,""060730083373"":6,""060730083552"":5,""060730083503"":4,""060730083012"":4,""060730083331"":4,""060730083661"":4,""060730083541"":4,""060730083542"":4,""060730083562"":4,""060730083482"":4,""060730083581"":4,""060730083584"":4,""060730083603"":4,""060730083504"":4,""060730083462"":4,""060730170481"":4,""060730083571"":4,""060730083592"":4,""060730083583"":4,""061150410002"":4,""060730170451"":4,""350130009005"":4,""060730031153"":4,""060730185132"":4,""060730083491"":4}","{""060730083472"":7,""060730083461"":6,""060730083072"":5,""060730077013"":5,""060730083483"":5,""060730083531"":4,""060730083591"":4,""060730083504"":4,""060730083462"":4,""350130009005"":4,""060730083492"":4,""060730083331"":4,""060730083552"":4,""060730083661"":4,""060730083583"":4,""060730083503"":4,""060730023011"":4,""060730083592"":4,""060730215001"":4,""060730083523"":4,""060730083502"":4,""060730028012"":4,""060730083562"":4}",ALL OTHER GENERAL MERCHANDISE STORES,CAMINO RUIZ nan,32.91463095,-117.143841,"{'06073008347': 7, '06073008337': 6, '06073008355': 5, '06073008350': 4, '06073008301': 4, '06073008333': 4, '06073008366': 4, '06073008354': 4, '06073008356': 4, '06073008348': 4, '06073008358': 4, '06073008360': 4, '06073008346': 4, '06073017048': 4, '06073008357': 4, '06073008359': 4, '06115041000': 4, '06073017045': 4, '35013000900': 4, '06073003115': 4, '06073018513': 4, '06073008349': 4}",0.9611358207568188
A & A AUTO COLLISON AND CLASSICS,92115,60730027081.0,"{""060730144001"":4}",{},AUTOMOTIVE BODY/PAINT/INTERIOR & GLASS REPAIR,53RD ST,32.75721387,-117.0818151,{'06073014400': 4},0.19653084761713424
A & J SUSHI,92103,60730006003.0,"{""060730215001"":4,""060730009004"":4,""060730004002"":4,""060730008004"":4,""060730024013"":4,""060730007002"":4,""060730104023"":4,""060730006001"":4,""060730005002"":4,""060730004001"":4}","{""060730041002"":5,""060730014003"":4,""060730056002"":4,""060730024013"":4,""060730009004"":4,""060730004001"":4,""060730006001"":4,""060730157041"":4,""060730215001"":4,""060730006003"":4,""060730007002"":4,""060730013002"":4,""060730005001"":4}",FOOD SERVICE CONTRACTORS,UNIVERSITY AVE,32.7484903,-117.1550433,"{'06073021500': 4, '06073000900': 4, '06073000400': 4, '06073000800': 4, '06073002401': 4, '06073000700': 4, '06073010402': 4, '06073000600': 4, '06073000500': 4}",0.8961004234517083
A & L TRANSPORT AND STORAGE,92173,60730100123.0,"{""060730124023"":4,""060730100151"":4,""060371224101"":4,""060730133131"":4,""060730101111"":4,""060376037023"":4}","{""060730100141"":5,""060730045011"":4,""060730100151"":4,""060730100123"":4,""060250123023"":4}",MOTOR VEHICLE TOWING,W SAN YSIDRO BLVD,32.7311086,-117.1600331,"{'06073012402': 4, '06073010015': 4, '06037122410': 4, '06073013313': 4, '06073010111': 4, '06037603702': 4}",0.9456193753151876
A & M,92110,60730065001.0,"{""060730056001"":8,""060730206023"":7,""060730083441"":6,""530530713042"":6,""060730215001"":5,""060730083541"":4,""060070031003"":4,""060730054002"":4,""060730101071"":4,""060730100053"":4,""060730176011"":4,""040131125101"":4,""060730170422"":4,""060730091072"":4,""060730085041"":4,""060730208092"":4,""040190043221"":4,""060730031073"":4,""060730032093"":4,""060730083542"":4,""060650435072"":4,""060730101104"":4,""060650419061"":4,""060730068021"":4,""060730203061"":4,""060730133102"":4,""060730133101"":4,""060730068022"":4,""060730068011"":4,""060730068023"":4,""060730164025"":4,""060650427381"":4,""060730091011"":4,""060730141021"":4,""060730100012"":4}","{""060375438023"":10,""060730085111"":6,""060070031003"":4,""060730082001"":4,""060730089014"":4,""060730154044"":4,""060730100121"":4,""060730083461"":4,""060730173042"":4,""060730157013"":4,""060730165031"":4,""060730053003"":4,""060730133101"":4,""490490101131"":4,""060730154043"":4,""060730214001"":4,""060730204011"":4,""060730032084"":4,""060730100142"":4,""060730076005"":4,""060730100151"":4,""060650427381"":4,""060710100171"":4,""060730095111"":4,""060730170301"":4,""530330265001"":4,""060730043001"":4,""060730133102"":4,""060730166093"":4,""060650427331"":4,""060730197023"":4,""060730068011"":4,""060730068023"":4,""060730133141"":4,""060290054015"":4,""320030036211"":4,""060730117002"":4,""060730206023"":4,""060730170422"":4,""060730159022"":4,""060730074005"":4,""060730065001"":4,""060730032093"":4,""060730060001"":4,""060650446052"":4,""060730083542"":4,""060730025013"":4,""060710005043"":4,""060730101071"":4}",SWAP MEET VENDOR,SPORTS ARENA BLVD,32.75364931,-117.211393,"{'06073005600': 8, '06073020602': 7, '06073008344': 6, '53053071304': 6, '06073021500': 5, '06073008354': 4, '06007003100': 4, '06073005400': 4, '06073010107': 4, '06073010005': 4, '06073017601': 4, '04013112510': 4, '06073017042': 4, '06073009107': 4, '06073008504': 4, '06073020809': 4, '04019004322': 4, '06073003107': 4, '06073003209': 4, '06065043507': 4, '06073010110': 4, '06065041906': 4, '06073006802': 4, '06073020306': 4, '06073013310': 4, '06073006801': 4, '06073016402': 4, '06065042738': 4, '06073009101': 4, '06073014102': 4, '06073010001': 4}",0.9999406942815984
A & P PARTY HALL AND STUDIO,92154,60730100103.0,"{""060730100051"":6,""060730100142"":5,""060730100041"":4,""060730100052"":4,""060730137022"":4}","{""060730116022"":5,""060730123021"":4,""060730137022"":4,""060730100051"":4}",OTHER PERSONAL SERVICES,DEL SOL BLVD,32.57328518,-117.0563045,"{'06073010005': 6, '06073010014': 5, '06073010004': 4, '06073013702': 4}",0.9717302571003108
A & S INDUSTRIES INC,92111,60730085111.0,"{""060730083661"":4,""060730171102"":4,""060730215001"":4,""060730083411"":4,""060590525202"":4,""060374042012"":4,""060730133131"":4,""060730170363"":4,""060730208091"":4,""060730083291"":4}","{""060373116002"":4}",FOOD SERVICES & DRINKING PLACES,CLAIREMONT MESA BLVD,32.83265852,-117.155468,"{'06073008366': 4, '06073017110': 4, '06073021500': 4, '06073008341': 4, '06059052520': 4, '06037404201': 4, '06073013313': 4, '06073017036': 4, '06073020809': 4, '06073008329': 4}",0.7018367901257391
A 1 CONSTRUCTION MANAGEMENT,92108,60730087022.0,"{""530350912011"":6,""060730092021"":4,""060730088002"":4,""320030032371"":4,""060590320561"":4}","{""060730092021"":4}","BUILDING, DEVELOPING & GENERAL CONTRACTING",MISSION CENTER RD,32.77634032,-117.1542875,"{'53035091201': 6, '06073009202': 4, '06073008800': 4, '32003003237': 4, '06059032056': 4}",0.3584647244206818
A AAAFFORDABLE DRIVING SCHOOL,92103,60730009005.0,"{""060730157032"":4}","{""060730208013"":4}",AUTOMOBILE DRIVING SCHOOLS,PARK BLVD,32.75050171,-117.1462669,{'06073015703': 4},0.3383376770599817
A BOWL,92111,60730085111.0,"{""060730170222"":4}",{},FULL-SERVICE RESTAURANTS,CONVOY ST,32.826544500000004,-117.1544867,{'06073017022': 4},0.11263322671374275
A BREATH OF LIFE,91945,60730141022.0,"{""060730169021"":4,""060730027121"":4}","{""060730027092"":4,""060730169021"":4}",EDUCATIONAL SUPPORT SERVICES,LANSING DR,32.72172895,-117.0294863,"{'06073016902': 4, '06073002712': 4}",0.4738084704130602
A BREEZE TRANSPORTATION,92108,60730087022.0,"{""530350912011"":6,""060730092021"":4,""060730088002"":4,""320030032371"":4,""060590320561"":4}","{""060730092021"":4}",TAXI & LIMOUSINE SERVICE,MISSION CENTER RD,32.77634032,-117.1542875,"{'53035091201': 6, '06073009202': 4, '06073008800': 4, '32003003237': 4, '06059032056': 4}",0.3584647244206818
A K MARTIAL ARTS ACADEMY,92127,60730170322.0,"{""060730170321"":9,""060730170322"":7,""060730131043"":4,""060650432422"":4,""484391136293"":4,""060730095022"":4,""060730170313"":4,""060730168091"":4,""060730083603"":4,""060730170291"":4,""060730170301"":4,""060650427241"":4,""060730166091"":4,""060730170303"":4,""060730185093"":4}","{""060730170321"":8,""060730170301"":6,""060730083603"":5,""060730170322"":5,""484391136293"":4,""060730199021"":4,""060730208092"":4,""060730207093"":4,""060730033011"":4,""060730170291"":4,""060650427241"":4,""060730208093"":4,""060730166091"":4,""060730200183"":4,""060730083353"":4}",MARTIAL ARTS INSTRUCTOR,BERNARDO CENTER DR,33.00528474,-117.0916162,"{'06073017032': 9, '06073013104': 4, '06065043242': 4, '48439113629': 4, '06073009502': 4, '06073017031': 4, '06073016809': 4, '06073008360': 4, '06073017029': 4, '06073017030': 4, '06065042724': 4, '06073016609': 4, '06073018509': 4}",0.8736788587048783
A NEW YOU,92108,60730089014.0,"{""060730091041"":4,""060730083532"":4}","{""060730083532"":4,""060730087022"":4,""060730214001"":4}",MASSAGE THERAPY,FRIARS RD,32.7666273,-117.1831025,"{'06073009104': 4, '06073008353': 4}",0.3100675020517656
A PLUS LIGHTNING,92111,60730085111.0,"{""060730095061"":6,""060730166061"":4,""060730139082"":4}","{""060730133021"":4,""060730134091"":4,""060730173042"":4,""060730041004"":4,""060730085111"":4,""060730166061"":4}",ELECTRICAL CONTRACTORS,BALBOA AVE,32.82179362,-117.15840159999998,"{'06073009506': 6, '06073016606': 4, '06073013908': 4}",0.5504187940612124
A PRO PLUMBING,92154,60730100042.0,"{""060730101031"":4}","{""060730101031"":4,""060730100091"":4,""060730100012"":4}","PLUMBING, HEATING & AC CONTRACTOR",CARNELL AVE,32.57234737,-117.0631113,{'06073010103': 4},0.4960441913538648
A&D IRON WORK,92113,60730036011.0,"{""060730185141"":4}","{""060730048001"":4}",OTHER PERSONAL & HOUSEHOLD GOODS R&M,NATIONAL AVE,32.69592902,-117.1214386,{'06073018514': 4},0.19528841397193866
A&M HOLDINGS,92110,60730065001.0,"{""060730056001"":8,""060730206023"":7,""060730083441"":6,""530530713042"":6,""060730215001"":5,""060730083541"":4,""060070031003"":4,""060730054002"":4,""060730101071"":4,""060730100053"":4,""060730176011"":4,""040131125101"":4,""060730170422"":4,""060730091072"":4,""060730085041"":4,""060730208092"":4,""040190043221"":4,""060730031073"":4,""060730032093"":4,""060730083542"":4,""060650435072"":4,""060730101104"":4,""060650419061"":4,""060730068021"":4,""060730203061"":4,""060730133102"":4,""060730133101"":4,""060730068022"":4,""060730068011"":4,""060730068023"":4,""060730164025"":4,""060650427381"":4,""060730091011"":4,""060730141021"":4,""060730100012"":4}","{""060375438023"":10,""060730085111"":6,""060070031003"":4,""060730082001"":4,""060730089014"":4,""060730154044"":4,""060730100121"":4,""060730083461"":4,""060730173042"":4,""060730157013"":4,""060730165031"":4,""060730053003"":4,""060730133101"":4,""490490101131"":4,""060730154043"":4,""060730214001"":4,""060730204011"":4,""060730032084"":4,""060730100142"":4,""060730076005"":4,""060730100151"":4,""060650427381"":4,""060710100171"":4,""060730095111"":4,""060730170301"":4,""530330265001"":4,""060730043001"":4,""060730133102"":4,""060730166093"":4,""060650427331"":4,""060730197023"":4,""060730068011"":4,""060730068023"":4,""060730133141"":4,""060290054015"":4,""320030036211"":4,""060730117002"":4,""060730206023"":4,""060730170422"":4,""060730159022"":4,""060730074005"":4,""060730065001"":4,""060730032093"":4,""060730060001"":4,""060650446052"":4,""060730083542"":4,""060730025013"":4,""060710005043"":4,""060730101071"":4}",NONSTORE RETAILERS,SPORTS ARENA BLVD,32.75364931,-117.211393,"{'06073005600': 8, '06073020602': 7, '06073008344': 6, '53053071304': 6, '06073021500': 5, '06073008354': 4, '06007003100': 4, '06073005400': 4, '06073010107': 4, '06073010005': 4, '06073017601': 4, '04013112510': 4, '06073017042': 4, '06073009107': 4, '06073008504': 4, '06073020809': 4, '04019004322': 4, '06073003107': 4, '06073003209': 4, '06065043507': 4, '06073010110': 4, '06065041906': 4, '06073006802': 4, '06073020306': 4, '06073013310': 4, '06073006801': 4, '06073016402': 4, '06065042738': 4, '06073009101': 4, '06073014102': 4, '06073010001': 4}",0.9999406942815984
A+ REPAIR,92154,60730101101.0,"{""060730100092"":9,""060730135051"":8,""060730100142"":7,""060133462013"":4,""060730213032"":4,""060730032093"":4,""060730100034"":4,""060730129001"":4,""060730139051"":4,""060730101071"":4,""060730039022"":4,""060730128002"":4,""060730133102"":4,""060730167011"":4,""060730101073"":4,""060730101112"":4,""060730086001"":4,""060730098054"":4,""060730117001"":4,""060730009002"":4,""060730100131"":4,""060730131023"":4}","{""060730100142"":8,""060730129001"":6,""060730100093"":5,""060730031081"":5,""060730206011"":5,""060730104023"":4,""060730156012"":4,""060730103001"":4,""060730086001"":4,""060730133072"":4,""060730127002"":4,""060730033041"":4,""060730167011"":4,""060133462013"":4,""060730132051"":4,""060730157012"":4,""060730083103"":4,""060730092011"":4,""060730133141"":4,""060730016001"":4,""060730100121"":4,""060730083291"":4,""060730132063"":4,""060730009002"":4,""060730100092"":4}",SWAP MEET VENDOR,CORONADO AVE,32.779021,-117.1278616,"{'06073010009': 9, '06073013505': 8, '06073010014': 7, '06013346201': 4, '06073021303': 4, '06073003209': 4, '06073010003': 4, '06073012900': 4, '06073013905': 4, '06073010107': 4, '06073003902': 4, '06073012800': 4, '06073013310': 4, '06073016701': 4, '06073010111': 4, '06073008600': 4, '06073009805': 4, '06073011700': 4, '06073000900': 4, '06073010013': 4, '06073013102': 4}",0.9999942101458876
A-1 SELF STORAGE,92154,60730101071.0,"{""060730100122"":4,""060730144002"":4,""060730101071"":4,""060730101062"":4,""060730216001"":4,""060730108001"":4}","{""060730101071"":5,""060730030013"":4}",RENTAL & LEASING SERVICES,HOLLISTER ST,32.58114712,-117.0840268,"{'06073010012': 4, '06073014400': 4, '06073010107': 4, '06073010106': 4, '06073021600': 4, '06073010800': 4}",0.9583956175252564
AAA JAPANESE CAR SPECIALISTS,92126,60730083602.0,"{""051190035003"":4,""060730083661"":4,""060730170322"":4,""060730170412"":4}","{""060730083661"":4,""060730083573"":4,""060730170322"":4,""060730088004"":4}",AUTOMOTIVE R&M,BLACK MOUNTAIN RD,32.89667245,-117.1232943,"{'05119003500': 4, '06073008366': 4, '06073017032': 4, '06073017041': 4}",0.26298561152255884
AAA MEDICAL SUPPLY INC,92111,60730085111.0,"{""060730027074"":4}",{},MEDICAL/DENTAL/HOSPITAL EQUIP & SUPP WHSLE,VICKERS ST,32.82722887,-117.1464092,{'06073002707': 4},0.4171773187398767
AAA PARKING,92093,60730083051.0,"{""060710001091"":4,""060710001162"":4,""060710004041"":4,""060730170201"":4,""320030058291"":4,""060590423121"":4,""450790103082"":4,""060730203044"":4,""060590525221"":4,""060650452153"":4,""481210215194"":4,""311530103061"":4,""080839693005"":4,""060730082001"":4,""170438411022"":4,""040133194014"":4,""060730083401"":4,""060650427292"":4,""320030029423"":4,""060590219162"":4}","{""060730083332"":4}",PARKING LOTS & GARAGES,GILMAN DR,32.882163408000004,-117.23736854,"{'06071000109': 4, '06071000116': 4, '06071000404': 4, '06073017020': 4, '32003005829': 4, '06059042312': 4, '45079010308': 4, '06073020304': 4, '06059052522': 4, '06065045215': 4, '48121021519': 4, '31153010306': 4, '08083969300': 4, '06073008200': 4, '17043841102': 4, '04013319401': 4, '06073008340': 4, '06065042729': 4, '32003002942': 4, '06059021916': 4}",0.42671725304966335
AAHARN AT UNIVERSITY CITY,92122,60730083072.0,"{""060730166162"":8,""060730085031"":5,""060730176042"":4,""060730083391"":4,""060730083272"":4}","{""060730148033"":4}",FULL-SERVICE RESTAURANTS,GOVERNOR DR,32.85095567,-117.2145156,"{'06073016616': 8, '06073008503': 5, '06073017604': 4, '06073008339': 4, '06073008327': 4}",0.6199126404085071
ABBOTT HEARING CENTERS,92119,60730097063.0,"{""060730146012"":4}","{""060730146012"":4,""060730097063"":4}",OFFICES OF ALL OTH MISC HEALTH PRACTITIONERS,JACKSON DR,32.8028363,-117.0452533,{'06073014601': 4},0.14051610963725014
ABBOTT STREET MARKET,92107,60730075022.0,"{""060790107073"":4,""060770043022"":4,""080310037011"":4,""060730075014"":4,""060730071002"":4}","{""060790107031"":4,""060730075022"":4,""060770041051"":4,""060730075021"":4,""060730085111"":4}",GROCERY STORES,ABBOTT ST,32.75089805,-117.250319,"{'06079010707': 4, '06077004302': 4, '08031003701': 4, '06073007501': 4, '06073007100': 4}",0.2052964612870144
ABC COMPLIANT,92126,60730083602.0,"{""060730083331"":4,""060730170412"":4,""060730170441"":4,""060730028031"":4}","{""060730083551"":4,""060730200132"":4}",CONSULTING SERVICES,BLACK MOUNTAIN RD,32.89522259,-117.12349340000002,"{'06073008333': 4, '06073017041': 4, '06073017044': 4, '06073002803': 4}",0.6154329082374829
ABC&E BIO-SERVICES INC,92154,60730101102.0,"{""060730032081"":4,""060730101104"":4}","{""060730149013"":4,""060730032081"":4,""060730104023"":4}",REMEDIATION SERVICES,HOLLISTER ST,32.575831300000004,-117.0841466,"{'06073003208': 4, '06073010110': 4}",0.6846317644119899
ABELINO HERNANDEZ,92154,60730101101.0,"{""060730100092"":9,""060730135051"":8,""060730100142"":7,""060133462013"":4,""060730213032"":4,""060730032093"":4,""060730100034"":4,""060730129001"":4,""060730139051"":4,""060730101071"":4,""060730039022"":4,""060730128002"":4,""060730133102"":4,""060730167011"":4,""060730101073"":4,""060730101112"":4,""060730086001"":4,""060730098054"":4,""060730117001"":4,""060730009002"":4,""060730100131"":4,""060730131023"":4}","{""060730100142"":8,""060730129001"":6,""060730100093"":5,""060730031081"":5,""060730206011"":5,""060730104023"":4,""060730156012"":4,""060730103001"":4,""060730086001"":4,""060730133072"":4,""060730127002"":4,""060730033041"":4,""060730167011"":4,""060133462013"":4,""060730132051"":4,""060730157012"":4,""060730083103"":4,""060730092011"":4,""060730133141"":4,""060730016001"":4,""060730100121"":4,""060730083291"":4,""060730132063"":4,""060730009002"":4,""060730100092"":4}",SWAP MEET VENDOR,CORONADO AVE,32.779021,-117.1278616,"{'06073010009': 9, '06073013505': 8, '06073010014': 7, '06013346201': 4, '06073021303': 4, '06073003209': 4, '06073010003': 4, '06073012900': 4, '06073013905': 4, '06073010107': 4, '06073003902': 4, '06073012800': 4, '06073013310': 4, '06073016701': 4, '06073010111': 4, '06073008600': 4, '06073009805': 4, '06073011700': 4, '06073000900': 4, '06073010013': 4, '06073013102': 4}",0.9999942101458876
ABILITIES PEDIATRIC PHYSICAL THERAPY PC,92115,60730029022.0,"{""060730012002"":4,""340090209022"":4}",{},OFFICES OF PT/OT/SPEECH THERAPY & AUDIOLOGY,EL CAJON BLVD,32.764962,-117.0606431,"{'06073001200': 4, '34009020902': 4}",0.18632079798499568
ABM PARKING SERVICES,92108,60730087022.0,"{""060730153021"":4,""060730071001"":4}",{},PARKING LOTS & GARAGES,FRAZEE RD,32.77355429,-117.15850159999998,"{'06073015302': 4, '06073007100': 4}",0.3757605548909199
ABOLT PROCESS SERVICE,92109,60730079032.0,"{""060730079072"":4,""060730083103"":4,""060730083612"":4,""060730080021"":4,""060730077012"":4}","{""060730083111"":4,""060730082002"":4,""060730079072"":4,""060730137023"":4,""060730085031"":4}",ALL OTHER PERSONAL SERVICES,GARNET AVE,32.80068103,-117.2370563,"{'06073007907': 4, '06073008310': 4, '06073008361': 4, '06073008002': 4, '06073007701': 4}",0.659485580768781
ABOUT DEVELOPMENT PERMIT,92110,60730068011.0,"{""060730166171"":4,""060730069001"":4,""060730168074"":4}","{""060730168074"":4,""060730019001"":4,""060730214001"":4}",OTHER BUSINESS SUPPORT SERVICES,W POINT LOMA BLVD,32.75467376,-117.2210187,"{'06073016617': 4, '06073006900': 4, '06073016807': 4}",0.4471485879813365
ABRAJ RESTAURANT INC,92115,60730029022.0,"{""060952527032"":5,""060730027083"":4}",{},FULL-SERVICE RESTAURANTS,EL CAJON BLVD,32.7659594,-117.0595899,"{'06095252703': 5, '06073002708': 4}",0.4439891835052002
ABS REFINMENT,92129,60730170361.0,"{""060730170291"":4,""060730171101"":4,""060730170523"":4}","{""060650498002"":6,""060730083052"":5,""060730083373"":4,""120990077522"":4,""060730170291"":4,""060730170181"":4,""060730188025"":4,""060730170432"":4,""060730170552"":4,""060730170361"":4}",BEAUTY SALONS,BLACK MOUNTAIN RD,32.95804987,-117.1274498,"{'06073017029': 4, '06073017110': 4, '06073017052': 4}",0.3426566769319436
ABSN INC,92131,60730170226.0,"{""060730135051"":4}","{""060730170226"":4,""060730166101"":4}",ALL OTHER MISC MFG,TREENA ST,32.9125956,-117.11379850000002,{'06073013505': 4},0.2617656909944256
ABSOLUTE COLLECTIONS CORPORATION,92108,60730087022.0,"{""060730153021"":4,""060730071001"":4}",{},COLLECTION AGENCIES,FRAZEE RD,32.77355429,-117.15850159999998,"{'06073015302': 4, '06073007100': 4}",0.3757605548909199
ABYPLASTIKABSA LLC,92037,60730082002.0,"{""060730178113"":4,""530610532023"":4,""060590525272"":4,""060379200152"":4,""420199124023"":4,""060650420052"":4}","{""060730085061"":4,""040131048011"":4,""530530734044"":4,""060730171071"":4,""060730185143"":4,""132930105003"":4,""060590525272"":4}",WHOLESALE TRADE,PROSPECT ST,32.84892931,-117.27257009999998,"{'06073017811': 4, '53061053202': 4, '06059052527': 4, '06037920015': 4, '42019912402': 4, '06065042005': 4}",0.11190944320232954
AC DISTRIBUTOR,92105,60730022011.0,"{""060730147003"":4,""060730027074"":4,""060730022011"":4,""060730189031"":4,""060730100142"":4}","{""060730022011"":5,""060730076003"":4,""060730031032"":4,""060730118011"":4,""060730085111"":4,""060730100151"":4,""060372260021"":4}",FRESH FRUIT & VEGETABLE WHSLE,UNIVERSITY AVE,32.74975769,-117.1115448,"{'06073014700': 4, '06073002707': 4, '06073002201': 4, '06073018903': 4, '06073010014': 4}",0.8453397860125436
"ACACIA + SPRUCE, LLC",92130,60730215001.0,"{""060730215001"":4}",{},RETAIL TRADE,KENMAR WAY,32.96327,-117.17228,{'06073021500': 4},0.11707693678417685
ACADEMY SECURITIES INC,92130,60730083291.0,"{""060730083281"":5,""060730083291"":4}","{""060730170303"":5,""060730098012"":4,""060730083281"":4}",INVESTMENT BANKING & SECURITIES DEALING,HIGH BLUFF DR,32.94736795,-117.240557,"{'06073008328': 5, '06073008329': 4}",0.24433999283017804
ACC3 INTERNATIONAL INCOPORATED,92126,60730083501.0,"{""060730221001"":4}","{""060730133102"":4,""061110053032"":4}",CONSULTING SERVICES,MIRAMAR RD,32.89129786,-117.1402566,{'06073022100': 4},0.11788656488671778
ACCREDITED  INTERCHANGE LLC,92101,60730053001.0,"{""060730029022"":6,""060730058001"":4,""060730168101"":4,""060730053001"":4,""060730170102"":4,""060730052002"":4,""060371892012"":4}","{""060730053001"":4}",OTHER PERSONAL SERVICES,B ST,32.71786987,-117.1578886,"{'06073002902': 6, '06073005800': 4, '06073016810': 4, '06073005300': 4, '06073017010': 4, '06073005200': 4, '06037189201': 4}",0.911694119406102
ACCREDITED INTERCHANGE PAYMENT SOLUTIONS,92101,60730053001.0,"{""060730029022"":6,""060730058001"":4,""060730168101"":4,""060730053001"":4,""060730170102"":4,""060730052002"":4,""060371892012"":4}","{""060730053001"":4}",OTHER BUSINESS SERVICES,B ST,32.71786987,-117.1578886,"{'06073002902': 6, '06073005800': 4, '06073016810': 4, '06073005300': 4, '06073017010': 4, '06073005200': 4, '06037189201': 4}",0.911694119406102
ACCRIVA DIAGNOSTICS,92121,60730083461.0,"{""060730083451"":4,""060730083562"":4,""060730188024"":4}","{""060730083461"":10,""060730170502"":4,""060730018004"":4}",MEDICAL EQUIPMENT & SUPPLIES MFG,SEQUENCE DR,32.90529455,-117.185382,"{'06073008345': 4, '06073008356': 4, '06073018802': 4}",0.3698193511403649
ACCUQUEST HEARING CENTERS INC,92128,60730170141.0,"{""060730170301"":49,""060730170321"":28,""060730170153"":27,""060730170313"":25,""060730170304"":21,""060730170322"":21,""060730170201"":21,""060730170193"":17,""060730170522"":16,""060730170513"":14,""060730170151"":14,""060730170154"":14,""060730170141"":13,""060730170062"":13,""060730170302"":12,""060730170192"":12,""060730170311"":11,""060730170531"":10,""060730170061"":9,""060730170202"":9,""060730170512"":8,""060730170191"":8,""060730170152"":8,""060730170312"":8,""060730170511"":7,""060730170212"":7,""060730170142"":7,""060730170291"":6,""060730170521"":6,""060730191052"":5,""060730215001"":5,""060730203061"":5,""060730083272"":5,""060730170523"":5,""060730208012"":5,""060730203051"":5,""060730170303"":5,""060730170414"":4,""060730168111"":4,""060730166101"":4,""060730170492"":4,""060730154053"":4,""060730110002"":4,""060730083602"":4,""060650432522"":4,""060730170551"":4,""060730169014"":4,""060730191051"":4,""060730203062"":4,""060730170544"":4,""060730170552"":4,""060730053003"":4,""060730205003"":4,""060730170343"":4,""060730204031"":4,""060730213032"":4,""060730197022"":4,""060730198031"":4,""060730097052"":4,""060730170333"":4,""060730202093"":4,""060730170502"":4,""060730200133"":4,""060730153021"":4,""060730170441"":4,""060730207101"":4,""060730176012"":4,""060730203071"":4,""060730204043"":4,""060377007001"":4,""060730170391"":4,""060730200262"":4,""060730075023"":4,""060730200223"":4,""060650432543"":4,""060650432351"":4,""060730207081"":4,""060730154042"":4,""060730191031"":4,""060730204011"":4,""060730207091"":4,""060730032022"":4,""060730148051"":4,""060730207063"":4,""220510201022"":4,""060730170532"":4,""060730170341"":4,""060710099052"":4,""060730083474"":4,""060730170541"":4,""060730202141"":4,""060730083511"":4,""060730191061"":4,""060650432651"":4,""060730201071"":4,""060730101042"":4,""060730170352"":4,""060650432621"":4}","{""060730170301"":42,""060730170321"":34,""060730170141"":27,""060730170153"":25,""060730170313"":23,""060730170322"":22,""060730170201"":15,""060730170304"":15,""060730170522"":13,""060730170192"":13,""060730170151"":13,""060730170302"":12,""060730170513"":12,""060730170062"":11,""060730170154"":11,""060730170212"":10,""060730083511"":9,""060730170142"":9,""060730170311"":9,""060730170152"":9,""060730170531"":9,""060730170544"":9,""060730085111"":8,""060730170291"":8,""060730170193"":8,""060730170312"":8,""060730198031"":7,""060730170191"":7,""060730170303"":6,""060730170202"":6,""060730207101"":6,""060730170061"":6,""060590320302"":6,""060730170511"":5,""060730170374"":5,""060730215001"":5,""060730170343"":4,""060372675013"":4,""060730201062"":4,""060730204011"":4,""060730188033"":4,""060730201031"":4,""060650503002"":4,""060730139081"":4,""060730170441"":4,""060730170523"":4,""060710022041"":4,""060730171041"":4,""060730200202"":4,""060730190012"":4,""060730186112"":4,""060730170532"":4,""060730170552"":4,""060730170451"":4,""060730087021"":4,""060730200273"":4,""060730100094"":4,""060371231043"":4,""060650420042"":4,""060730053003"":4,""060730219001"":4,""060730085052"":4,""060730101042"":4,""060730204043"":4,""060730083502"":4,""060730170211"":4,""060730188025"":4,""060730200271"":4,""060730170181"":4,""060730074006"":4,""060730170402"":4,""060730083241"":4,""060730162021"":4,""060730203051"":4,""060730049002"":4,""060730032022"":4,""484910214013"":4,""060730154042"":4,""060730203072"":4,""060730203071"":4,""060376504012"":4,""060730083332"":4,""060730170333"":4,""060730207063"":4,""060730083353"":4,""060730170521"":4,""060730170092"":4,""060730083052"":4,""060730083501"":4,""060730170414"":4,""060730208063"":4,""060730203061"":4,""060730207091"":4,""060730200213"":4,""060730083412"":4,""060730208113"":4,""060730170512"":4,""060730200163"":4,""060710099052"":4,""060730170553"":4,""060730105023"":4,""060710055001"":4,""060730154053"":4,""060730170391"":4,""060730170492"":4,""060730148051"":4,""060730083602"":4,""060730170361"":4,""060730207061"":4,""060730083073"":4,""060730170502"":4,""060590993092"":4,""060650432402"":4,""060730083244"":4,""060730170484"":4}",ALL OTHER HEALTH & PERSONAL CARE STORES,BERNARDO CENTER DR,33.01851042,-117.0753762,"{'06073017030': 49, '06073017032': 28, '06073017015': 27, '06073017031': 25, '06073017020': 21, '06073017019': 17, '06073017052': 16, '06073017051': 14, '06073017014': 13, '06073017006': 13, '06073017053': 10, '06073017021': 7, '06073017029': 6, '06073019105': 5, '06073021500': 5, '06073020306': 5, '06073008327': 5, '06073020801': 5, '06073020305': 5, '06073017041': 4, '06073016811': 4, '06073016610': 4, '06073017049': 4, '06073015405': 4, '06073011000': 4, '06073008360': 4, '06065043252': 4, '06073017055': 4, '06073016901': 4, '06073017054': 4, '06073005300': 4, '06073020500': 4, '06073017034': 4, '06073020403': 4, '06073021303': 4, '06073019702': 4, '06073019803': 4, '06073009705': 4, '06073017033': 4, '06073020209': 4, '06073017050': 4, '06073020013': 4, '06073015302': 4, '06073017044': 4, '06073020710': 4, '06073017601': 4, '06073020307': 4, '06073020404': 4, '06037700700': 4, '06073017039': 4, '06073020026': 4, '06073007502': 4, '06073020022': 4, '06065043254': 4, '06065043235': 4, '06073020708': 4, '06073015404': 4, '06073019103': 4, '06073020401': 4, '06073020709': 4, '06073003202': 4, '06073014805': 4, '06073020706': 4, '22051020102': 4, '06071009905': 4, '06073008347': 4, '06073020214': 4, '06073008351': 4, '06073019106': 4, '06065043265': 4, '06073020107': 4, '06073010104': 4, '06073017035': 4, '06065043262': 4}",0.9999999941099408
ACD PROP1 LLC,92108,60730087022.0,"{""530350912011"":6,""060730092021"":4,""060730088002"":4,""320030032371"":4,""060590320561"":4}","{""060730092021"":4}","PROFESSIONAL, SCIENTIFIC & TECHNICAL SERVICES",MISSION CENTER RD,32.77634032,-117.1542875,"{'53035091201': 6, '06073009202': 4, '06073008800': 4, '32003003237': 4, '06059032056': 4}",0.3584647244206818
ACE  PARKING MANAGEMENT INC #1208,92037,60730083124.0,"{""060730083111"":5,""060590219182"":4,""060730083123"":4,""060730081021"":4,""040132173003"":4,""060730139092"":4,""060730071002"":4,""060730081022"":4,""060730154053"":4,""060730083124"":4,""060730082002"":4}","{""060730083124"":6,""060730082001"":4,""060730083031"":4,""060730081022"":4,""060730081021"":4,""060730083103"":4,""060730083123"":4,""060610201061"":4,""060730083032"":4,""060730020012"":4,""060730083111"":4,""484530019122"":4}",PARKING LOTS & GARAGES,SPINDRIFT DR,32.85201768,-117.2607465,"{'06073008311': 5, '06059021918': 4, '06073008312': 4, '06073008102': 4, '04013217300': 4, '06073013909': 4, '06073007100': 4, '06073015405': 4, '06073008200': 4}",0.7392702694086372
ACE APPLIANCE SERVICE,92116,60730010003.0,"{""060730148052"":4}","{""060730026011"":4,""060730137021"":4,""060730019001"":4}",ALL OTHER PERSONAL SERVICES,ALABAMA ST,32.75816509,-117.1424854,{'06073014805': 4},0.20703708774819096
ACE OF FADES TATTOO PARLOR,92154,60730101031.0,"{""060730133033"":4,""060730100041"":4,""060730101121"":4}","{""060730133033"":5,""060730100092"":5,""060730100151"":5,""060730220002"":4,""060730032092"":4,""060730100041"":4,""483396906011"":4,""060730101121"":4}",TATTOO PARLORS,PALM AVE,32.781106699999995,-117.2517007,"{'06073013303': 4, '06073010004': 4, '06073010112': 4}",0.8679367628766241
ACE PARKING III LLC #1506,92110,60730091041.0,"{""060730208013"":4,""060730029041"":4,""060730186121"":4}","{""060730212053"":4}",PARKING LOTS & GARAGES,MORENA BLVD,32.781376,-117.207175,"{'06073020801': 4, '06073002904': 4, '06073018612': 4}",0.5976165552160358
ACE PARKING MANAGEMENT INC  #1315,92101,60730053001.0,"{""060730056001"":6,""060730134103"":6,""060730083401"":4,""060730212061"":4,""060730053001"":4,""060730039021"":4,""060730098044"":4,""060730139032"":4,""060730134101"":4,""060730033053"":4,""060730043001"":4}","{""060730085014"":4,""060730043001"":4,""060730139032"":4,""060379006022"":4,""060730166172"":4,""060730053001"":4,""060730098044"":4,""060730170061"":4,""060730019002"":4,""060730135042"":4,""060730042002"":4,""060730051001"":4}",PARKING LOTS & GARAGES,B ST,32.71786475,-117.1606274,"{'06073005600': 6, '06073013410': 6, '06073008340': 4, '06073021206': 4, '06073005300': 4, '06073003902': 4, '06073009804': 4, '06073013903': 4, '06073003305': 4, '06073004300': 4}",0.9796580144167863
ACE PARKING MANAGEMENT INC #109,92037,60730082002.0,"{""060730178113"":4,""530610532023"":4,""060590525272"":4,""060379200152"":4,""420199124023"":4,""060650420052"":4}","{""060730085061"":4,""040131048011"":4,""530530734044"":4,""060730171071"":4,""060730185143"":4,""132930105003"":4,""060590525272"":4}",PARKING LOTS & GARAGES,PROSPECT ST,32.84892931,-117.27257009999998,"{'06073017811': 4, '53061053202': 4, '06059052527': 4, '06037920015': 4, '42019912402': 4, '06065042005': 4}",0.11190944320232954
ACE PARKING MANAGEMENT INC #1303,92122,60730083411.0,"{""160550005002"":4,""530350814001"":4,""040131166101"":4,""040190044141"":4,""060730076005"":4,""060670071042"":4,""060730134103"":4,""340350507031"":4,""060710100172"":4,""060710019031"":4}","{""060374037032"":4,""060730213041"":4,""160550005002"":4,""530730009013"":4,""340350507031"":4}",PARKING LOTS & GARAGES,LA JOLLA VILLAGE DR,32.87129834,-117.2245387,"{'16055000500': 4, '53035081400': 4, '04013116610': 4, '04019004414': 4, '06073007600': 4, '06067007104': 4, '06073013410': 4, '34035050703': 4, '06071010017': 4, '06071001903': 4}",0.4156868013723784
ACE PARKING MANAGEMENT INC 1180,92101,60730051002.0,"{""060730056002"":6,""060730100091"":5,""060730122002"":4,""061110033003"":4,""410192000001"":4,""060730054004"":4,""060650479002"":4,""040210013042"":4,""060730040002"":4,""060730216002"":4,""060710078001"":4,""060730133141"":4,""060730099021"":4,""060730051001"":4,""060730091022"":4,""060730203074"":4,""060730027031"":4,""061110076142"":4,""060375544041"":4,""440050403021"":4,""060250120022"":4,""060590219192"":4,""040131037012"":4,""060373024014"":4,""060730187001"":4,""060730133131"":4,""060730031131"":4,""040138107002"":4,""060730155012"":4}","{""060730133102"":4,""060730135061"":4,""060730051001"":4,""060590884032"":4,""060730134101"":4,""060730053002"":4,""060610203001"":4,""120860039141"":4,""170318154001"":4,""060730040002"":4,""060730095041"":4,""061110033003"":4,""080350141351"":4,""060730031051"":4,""060730187001"":4,""060730056002"":4,""060730080065"":4,""060590219192"":4,""060375768022"":4,""060730053001"":4,""060730051002"":4,""220330045051"":4}",PARKING LOTS & GARAGES,PARK BLVD,32.704164299999995,-117.1599432,"{'06073005600': 6, '06073010009': 5, '06073012200': 4, '06111003300': 4, '41019200000': 4, '06073005400': 4, '06065047900': 4, '04021001304': 4, '06073004000': 4, '06073021600': 4, '06071007800': 4, '06073013314': 4, '06073009902': 4, '06073005100': 4, '06073009102': 4, '06073020307': 4, '06073002703': 4, '06111007614': 4, '06037554404': 4, '44005040302': 4, '06025012002': 4, '06059021919': 4, '04013103701': 4, '06037302401': 4, '06073018700': 4, '06073013313': 4, '06073003113': 4, '04013810700': 4, '06073015501': 4}",0.9991297351356906
ACE PARKING MANAGEMENT INC 270,92101,60730054002.0,"{""060730129001"":5,""060730056001"":4,""060730209033"":4,""480610125081"":4,""060730194053"":4,""390852010002"":4,""060650452261"":4,""060650420091"":4,""480850316562"":4,""060730052001"":4,""060730170442"":4,""060375019003"":4,""060730093061"":4,""060855120203"":4,""040131138011"":4,""060250122001"":4,""060373024013"":4,""060770041021"":4,""060730170301"":4,""060730058001"":4,""060650504005"":4,""060730214002"":4,""060710127001"":4,""060250118021"":4,""060371374023"":4}","{""060730099021"":5,""170312309003"":5,""060377013043"":4,""060590218212"":4,""040138127001"":4,""040132168221"":4,""060650504005"":4,""060730166141"":4,""060375409011"":4,""530330107012"":4,""060730169011"":4,""060730170442"":4,""060590630061"":4,""060730133022"":4,""060710066042"":4,""484530019121"":4,""060730032021"":4,""060375707012"":4,""483396920011"":4,""060730170301"":4,""060373024013"":4,""420034810004"":4,""530350814001"":4,""060730054003"":4,""060730096043"":4,""060730095111"":4,""530330075005"":4,""060730071003"":4,""060730136013"":4,""060070016004"":4,""060770041021"":4,""060730209033"":4}",PARKING LOTS & GARAGES,N HARBOR DR,32.70251871,-117.1538868,"{'06073012900': 5, '06073005600': 4, '06073020903': 4, '48061012508': 4, '06073019405': 4, '39085201000': 4, '06065045226': 4, '06065042009': 4, '48085031656': 4, '06073005200': 4, '06073017044': 4, '06037501900': 4, '06073009306': 4, '06085512020': 4, '04013113801': 4, '06025012200': 4, '06037302401': 4, '06077004102': 4, '06073017030': 4, '06073005800': 4, '06065050400': 4, '06073021400': 4, '06071012700': 4, '06025011802': 4, '06037137402': 4}",0.9712470242013348
ACENDA INC,92126,60730083501.0,"{""060730221001"":4}","{""060730133102"":4,""061110053032"":4}",RETAIL SALES VIA INTERNET/WEBSITES,MIRAMAR RD,32.89129786,-117.1402566,{'06073022100': 4},0.11788656488671778
ACENTO COFFEE ROASTERS LLC,92110,60730091061.0,"{""060730083031"":4,""060590320502"":4,""060730097045"":4,""060855075003"":4}","{""060730133114"":4}",SNACK & NONALCOHOLIC BEVERAGE BARS,BANKS ST,32.76416536,-117.1991099,"{'06073008303': 4, '06059032050': 4, '06073009704': 4, '06085507500': 4}",0.29196514547216834
ACHIEVE TMS CENTERS,92121,60730083391.0,"{""060730150001"":4}",{},OFFICES OF OTHER MENTAL HEALTH PRACTITIONERS,EXECUTIVE DR,32.875881400000004,-117.209957,{'06073015000': 4},0.17683433595339326
ACHILLES COFFEE ROASTERS,92101,60730053001.0,"{""060371329001"":7,""061110050021"":4,""060730046001"":4,""060730170531"":4}","{""060371329001"":4}",OTHER MISCELLANEOUS STORE RETAILERS,ASH ST,32.71983598,-117.1583248,"{'06037132900': 7, '06111005002': 4, '06073004600': 4, '06073017053': 4}",0.4522197586862977
ACOUSTIC EVOLUTION INC,92128,60730170553.0,"{""060730170291"":4,""060730208112"":4,""060730170301"":4,""060730207091"":4}","{""060730170301"":5,""060730170313"":4,""060730170292"":4,""060730170291"":4,""060730170531"":4}",OTH PROFESSIONAL/SCIENTIFIC/TECHNICAL SERVICE,WORLD TRADE DR,32.98748446,-117.0731961,"{'06073017029': 4, '06073020811': 4, '06073017030': 4, '06073020709': 4}",0.5314762602417078
ACTAVALON INC,92121,60730083391.0,"{""060730083512"":4,""060730170321"":4}","{""060730083391"":7,""060730168044"":4,""060730085111"":4,""060730170321"":4,""060730170432"":4}",SCIENTIFIC R&D SERVICES,MERRYFIELD ROW,32.90161788,-117.2380622,"{'06073008351': 4, '06073017032': 4}",0.2379180229274037
ACTION BEACH & BAY RENTALS INC,92109,60730076007.0,"{""060375029022"":7,""060371065103"":4,""060730166051"":4,""040136156002"":4,""060730083291"":4,""060710078001"":4,""040130405211"":4,""040050011012"":4,""040132168522"":4}","{""060730083291"":6,""060730166051"":4,""060650427142"":4,""040130405211"":4}",OTHER AMUSEMENT & RECREATION INDUSTRIES,MISSION BLVD,32.78935622,-117.2532258,"{'06037502902': 7, '06037106510': 4, '06073016605': 4, '04013615600': 4, '06073008329': 4, '06071007800': 4, '04013040521': 4, '04005001101': 4, '04013216852': 4}",0.2558148545129679
ACTION SPORTS,92109,60730076007.0,"{""040134222151"":6,""060379201152"":4,""060710021091"":4,""060014001001"":4,""060730213031"":4,""040134226461"":4,""060750615003"":4,""060855029083"":4,""060730098051"":4,""040132168522"":4,""060730087011"":4,""060730200221"":4}","{""060730076003"":9,""060730004001"":7,""410030004003"":6,""060730170492"":4,""060730032131"":4,""060250112011"":4,""060371220002"":4,""060590320594"":4,""060377012011"":4,""410419504002"":4,""060730027084"":4,""060855125063"":4,""060371395021"":4,""040133192012"":4,""060730170062"":4,""060730133102"":4,""060730169011"":4,""061110028001"":4,""060730168101"":4}",ALL OTHER AMUSEMENT & RECREATION INDUSTRIES,SHELTER ISLAND DR,32.74522197,-117.241036625,"{'04013422215': 6, '06037920115': 4, '06071002109': 4, '06001400100': 4, '06073021303': 4, '04013422646': 4, '06075061500': 4, '06085502908': 4, '06073009805': 4, '04013216852': 4, '06073008701': 4, '06073020022': 4}",0.6099854290918724
ADAM & EVE STORE,92103,60730003002.0,"{""060730140011"":4,""060730032072"":4,""120950102003"":4}","{""120950102003"":4,""480291720071"":4}",CLOTHING & CLOTHING ACCESSORIES STORES,UNIVERSITY AVE,32.74820639,-117.1614032,"{'06073014001': 4, '06073003207': 4, '12095010200': 4}",0.4972468325037167
ADAMS AUTO SALES,92103,60730009005.0,"{""060730157032"":4}","{""060730208013"":4}",USED CAR DEALERS,PARK BLVD,32.75050171,-117.1462669,{'06073015703': 4},0.3383376770599817
ADAMS AVENUE BICYCLES INC,92116,60730011003.0,"{""060730054004"":5}","{""060730137021"":10,""060730219001"":4,""060730208052"":4}",SPORTING GOODS STORES,ADAMS AVE,32.76292209,-117.1362977,{'06073005400': 5},0.5260009891434319
ADDED-HIGH -TECH PROFESSIONALS CAREER CROSSROADS,92124,60730095092.0,"{""060730203061"":4,""060730083492"":4}","{""060730085111"":4,""060730166151"":4,""060730095111"":4}",ADVERTISING & RELATED SERVICES,TIERRASANTA BLVD,32.82302593,-117.1009417,"{'06073020306': 4, '06073008349': 4}",0.29512005734001845
ADELA'S AUTHENTIC MEXICAN AND SEAFOOD,92110,60730065001.0,"{""060730036022"":5,""060650432162"":4,""060730035022"":4,""060730087023"":4}","{""040210003131"":6,""060374821022"":5}",LIMITED-SERVICE EATING PLACES,MIDWAY DR,32.75338902,-117.2170636,"{'06073003602': 5, '06065043216': 4, '06073003502': 4, '06073008702': 4}",0.8055375067001257
ADELMAN FINE ART,92101,60730058001.0,"{""060730133141"":4,""060730019001"":4,""060730058001"":4,""481130141271"":4}","{""371330004012"":4,""060730058001"":4,""060730170562"":4,""060730150004"":4,""320030034081"":4,""060590524184"":4,""481130141271"":4,""060730133141"":4}",ART DEALERS,KETTNER BLVD,32.72491728,-117.1698131,"{'06073013314': 4, '06073001900': 4, '06073005800': 4, '48113014127': 4}",0.6976559807200773
ADINA MANOLESCU D D S INC,92120,60730096043.0,"{""060730133131"":4}",{},OFFICES OF DENTISTS,MISSION GORGE RD,32.79158213,-117.09797079999998,{'06073013313': 4},0.3182835869273203
ADOLFO PEREZ DESIGN,92110,60730066001.0,"{""060730069001"":5,""060730108002"":4,""060730170181"":4,""060730092021"":4,""060730133131"":4,""060590992441"":4}","{""060730068011"":4,""060730074004"":4,""060730170561"":4,""060730061001"":4,""060730108002"":4,""060730069001"":4,""060730214001"":4,""060730079031"":4,""060730085012"":4,""060730133131"":4}",GRAPHIC DESIGN SERVICES,MIDWAY DR,32.745636,-117.199646,"{'06073006900': 5, '06073010800': 4, '06073017018': 4, '06073009202': 4, '06073013313': 4, '06059099244': 4}",0.6412253831222138
ADRIAN'S SURF N TURF GRILL,92123,60730085111.0,"{""060730031153"":5,""060730095053"":4,""060730021001"":4}","{""060730095103"":6,""060730101074"":6,""060730026011"":4,""060730148042"":4,""060730198063"":4}",FULL-SERVICE RESTAURANTS,CLAIREMONT MESA BLVD,32.83138065,-117.1277358,"{'06073003115': 5, '06073009505': 4, '06073002100': 4}",0.5826121816225589
ADRIANA MARQUEZ,92154,60730101101.0,"{""060730100092"":9,""060730135051"":8,""060730100142"":7,""060133462013"":4,""060730213032"":4,""060730032093"":4,""060730100034"":4,""060730129001"":4,""060730139051"":4,""060730101071"":4,""060730039022"":4,""060730128002"":4,""060730133102"":4,""060730167011"":4,""060730101073"":4,""060730101112"":4,""060730086001"":4,""060730098054"":4,""060730117001"":4,""060730009002"":4,""060730100131"":4,""060730131023"":4}","{""060730100142"":8,""060730129001"":6,""060730100093"":5,""060730031081"":5,""060730206011"":5,""060730104023"":4,""060730156012"":4,""060730103001"":4,""060730086001"":4,""060730133072"":4,""060730127002"":4,""060730033041"":4,""060730167011"":4,""060133462013"":4,""060730132051"":4,""060730157012"":4,""060730083103"":4,""060730092011"":4,""060730133141"":4,""060730016001"":4,""060730100121"":4,""060730083291"":4,""060730132063"":4,""060730009002"":4,""060730100092"":4}",SWAP MEET VENDOR,CORONADO AVE,32.779021,-117.1278616,"{'06073010009': 9, '06073013505': 8, '06073010014': 7, '06013346201': 4, '06073021303': 4, '06073003209': 4, '06073010003': 4, '06073012900': 4, '06073013905': 4, '06073010107': 4, '06073003902': 4, '06073012800': 4, '06073013310': 4, '06073016701': 4, '06073010111': 4, '06073008600': 4, '06073009805': 4, '06073011700': 4, '06073000900': 4, '06073010013': 4, '06073013102': 4}",0.9999942101458876
ADVANCED ESTATE PLANNING,92108,60730087022.0,"{""060730153021"":4,""060730071001"":4}",{},"TRUSTS, ESTATES & AGENCY ACCOUNTS",FRAZEE RD,32.77355429,-117.15850159999998,"{'06073015302': 4, '06073007100': 4}",0.3757605548909199
ADVANCED EXTERIORS INC,91942,60730149021.0,"{""060730213033"":4}",{},ALL OTHER SPECIAL TRADE CONTRACTORS,UNIVERSITY AVE,32.76735029,-117.0215653,{'06073021303': 4},0.2629968879284441
ADVANCED HEALTH CARE,92108,60730093042.0,"{""060730080023"":4}","{""060730068023"":4}",OFFICES OF OTHER MENTAL HEALTH PRACTITIONERS,MISSION CENTER CT,32.77360634,-117.1550468,{'06073008002': 4},0.24488988249658886
ADVANCED IMAGING STRATEGIES INC,92126,60730083501.0,"{""060730170153"":4}","{""060730170153"":4,""060730191071"":4}",MISCELLANEOUS STORE RETAILERS,MIRAMAR RD,32.88224039,-117.155889,{'06073017015': 4},0.12048153842601915
ADVANTAGE AUTO TECH,92126,60730083602.0,"{""051190035003"":4,""060730083661"":4,""060730170322"":4,""060730170412"":4}","{""060730083661"":4,""060730083573"":4,""060730170322"":4,""060730088004"":4}",GENERAL AUTOMOTIVE REPAIR,BLACK MOUNTAIN RD,32.89667245,-117.1232943,"{'05119003500': 4, '06073008366': 4, '06073017032': 4, '06073017041': 4}",0.26298561152255884
ADVANTAGE CONTRACTING INC,92130,60730083291.0,"{""060730083291"":4}",{},SPECIAL TRADE CONTRACTORS,HIGH BLUFF DR,32.94873805,-117.2405563,{'06073008329': 4},0.11707693678417685
ADVANTAGE SUPERSIZE CARD-OP LAUNDRY OF LINDA VISTA,92111,60730085101.0,"{""060730088004"":4,""060730170392"":4}",{},DRYCLEANING & LAUNDRY SERVICES (EXC COIN-OP),LINDA VISTA RD,32.80126744,-117.1579295,"{'06073008800': 4, '06073017039': 4}",0.2903052560825182
AECOM TECHNICAL SERVICES INC,92101,60730054002.0,"{""060730054004"":4,""060730040001"":4,""060730105022"":4,""060730149021"":4,""060730219001"":4,""060730032021"":4}","{""060730083353"":5,""060730130001"":4,""060730040002"":4,""060730027083"":4,""320030029391"":4,""060730100094"":4}",ENGINEERING SERVICES,W A ST,32.7187932,-117.1610819,"{'06073005400': 4, '06073004000': 4, '06073010502': 4, '06073014902': 4, '06073021900': 4, '06073003202': 4}",0.9155622924859694
AEQUOR  INC,92121,60730083391.0,"{""060730083512"":4,""060730170321"":4}","{""060730083391"":7,""060730168044"":4,""060730085111"":4,""060730170321"":4,""060730170432"":4}",SCIENTIFIC R&D SERVICES,MERRYFIELD ROW,32.90161788,-117.2380622,"{'06073008351': 4, '06073017032': 4}",0.2379180229274037
AERIS HOME,92104,60730008001.0,"{""060730136061"":7,""060730008004"":4,""060710019031"":4,""060730083541"":4,""060730031153"":4,""060730032085"":4}","{""060730031153"":5,""060730085095"":5,""060730032122"":4,""060730136061"":4,""060710019031"":4,""060730120022"":4,""060650464011"":4,""060730139052"":4}",INTERIOR DESIGN SERVICES,UNIVERSITY AVE,32.7483915,-117.139935,"{'06073013606': 7, '06073000800': 4, '06071001903': 4, '06073008354': 4, '06073003115': 4, '06073003208': 4}",0.8289668698423053
AERO AUTO REPAIR,92123,60730085111.0,"{""060730030031"":4,""060730095102"":4}",{},AUTOMOTIVE R&M,AERO DR,32.80866208,-117.1193746,"{'06073003003': 4, '06073009510': 4}",0.4089989689509168
AESTHETIC SAVOIR,92104,60730014002.0,"{""060730204032"":4}",{},BEAUTY SALONS,30TH ST,32.74345871,-117.1301373,{'06073020403': 4},0.2573223259859532
AFC URGENT CARE OF SAN DIEGO CORP,92126,60730083492.0,"{""060730170461"":4,""060730083531"":4}","{""060730083462"":4,""060730083461"":4}",AMBULATORY HEALTH CARE SERVICES,MIRA MESA BLVD,32.91270167,-117.1464212,"{'06073017046': 4, '06073008353': 4}",0.2334375476575877
AFFORDABLE GREASE PUMPING,92121,60730083501.0,"{""060730133102"":4,""060730082003"":4,""060710027031"":4,""370499612022"":4}","{""060710027031"":4}",WASTE COLLECTION,MIRAMAR RD,32.87693327,-117.183741,"{'06073013310': 4, '06073008200': 4, '06071002703': 4, '37049961202': 4}",0.3857199397227713
AFTERS ICE CREAM,92109,60730079102.0,"{""060730083112"":4}","{""060591105004"":4}",SPECIAL FOOD SERVICES,GARNET AVE,32.79672682,-117.2544737,{'06073008311': 4},0.1222192892518057
AGILEBIO LLC,92123,60730085111.0,"{""060730133141"":6,""060730176042"":4,""060730031122"":4,""060730031111"":4,""060730133111"":4,""060730133101"":4}","{""060730085111"":7,""060730022022"":4,""060730083502"":4,""060730054003"":4,""060730101033"":4,""060730208093"":4,""060730133102"":4,""060730202101"":4}",COMPUTER & SOFTWARE STORES,KEARNY VILLA RD,32.83421415,-117.1387997,"{'06073013314': 6, '06073017604': 4, '06073003112': 4, '06073003111': 4, '06073013311': 4, '06073013310': 4}",0.8877195117166014
AGL YACHT SALES INC,92101,60730062001.0,"{""060610213222"":5,""060730091021"":4,""060730083402"":4,""060730095054"":4,""060730085055"":4,""060590626332"":4,""060730154041"":4}","{""060730221001"":4,""060730097045"":4,""060730199052"":4}",BOAT DEALERS,HARBOR ISLAND DR,32.72490244,-117.1929967,"{'06061021322': 5, '06073009102': 4, '06073008340': 4, '06073009505': 4, '06073008505': 4, '06059062633': 4, '06073015404': 4}",0.6029839721666475
AGM CLEAN TEAM,92078,60730200183.0,"{""060730199022"":4,""060730199032"":4}","{""060730199022"":4,""060730192053"":4}",JANITORIAL SERVICES,SMILAX RD,33.15661,-117.20771,"{'06073019902': 4, '06073019903': 4}",0.4336339686238305
AGUSTIN GOMEZ REAL ESTATE,92101,60730058001.0,"{""060730054002"":4}","{""060730054002"":4,""060730048002"":4}",REAL ESTATE,PACIFIC HWY,32.72019796,-117.1709576,{'06073005400': 4},0.4496715709632427
AHIPOKI BOWL SAN DIEGO LLC,92110,60730065001.0,"{""060730214001"":4,""060730137021"":4,""060730167011"":4,""060730168112"":4,""060730061001"":4,""060730017001"":4,""060730027081"":4}","{""060730032042"":7,""060730068011"":4,""060730137021"":4,""060730065001"":4,""060730047002"":4}",LIMITED-SERVICE RESTAURANTS,ROSECRANS ST,32.7507647,-117.205254,"{'06073021400': 4, '06073013702': 4, '06073016701': 4, '06073016811': 4, '06073006100': 4, '06073001700': 4, '06073002708': 4}",0.8727009953944558
AI M LY,92123,60730085111.0,"{""060730031153"":5,""060730095053"":4,""060730021001"":4}","{""060730095103"":6,""060730101074"":6,""060730026011"":4,""060730148042"":4,""060730198063"":4}",NAIL SALONS - BOOTH RENTAL,CLAIREMONT MESA BLVD,32.83138065,-117.1277358,"{'06073003115': 5, '06073009505': 4, '06073002100': 4}",0.5826121816225589
AIBERTOS MEXICAN FOOD INC,92105,60730024022.0,"{""060730031151"":4,""060730022023"":4,""060730024021"":4,""060730025013"":4,""060730086001"":4,""060730036011"":4,""060730032093"":4,""060730022021"":4,""060730024022"":4}","{""060730024022"":5,""060730054002"":4,""060730027083"":4,""060730023022"":4,""060730032093"":4,""060730124022"":4,""060730025011"":4}",LIMITED-SERVICE EATING PLACES,41ST ST,32.74868533,-117.1069966,"{'06073003115': 4, '06073002202': 4, '06073002402': 4, '06073002501': 4, '06073008600': 4, '06073003601': 4, '06073003209': 4}",0.9382825158956914
AIM WEST LOGISTICS,92123,60730085111.0,"{""060730093061"":4,""060730093063"":4,""060730192051"":4}","{""060730092012"":4,""060730085111"":4,""060730093063"":4,""060730085103"":4}","GENERAL FREIGHT TRUCKING, LONG-DISTANCE, LTL",AERO DR,32.80975053,-117.1409948,"{'06073009306': 4, '06073019205': 4}",0.3648549182156712
AIROOT PROPERTIES LLC,92127,60730170291.0,"{""060730083353"":4,""060730083332"":4,""060730170291"":4}","{""060730083353"":4,""060730083603"":4,""060730170291"":4}",GENERAL RENTAL CENTERS,VIA FIESTA nan,32.9921676,-117.1632709,"{'06073008335': 4, '06073008333': 4, '06073017029': 4}",0.2958853122670741
AIRSHINE MUSIC SCHOOL,92104,60730014003.0,"{""060730085111"":4,""060730144001"":4}","{""060730100142"":4,""060730144001"":4}",FINE ARTS SCHOOLS,UNIVERSITY AVE,32.74840563,-117.1347072,"{'06073008511': 4, '06073014400': 4}",0.3361335458150142
AISHA AHMED DPM INC,92037,60730083412.0,"{""040136109002"":8,""060730201071"":4,""060730083332"":4,""060375539012"":4,""060730083632"":4,""060730083431"":4,""060730083412"":4,""060730083643"":4,""060730170553"":4,""060730031013"":4,""040099612011"":4,""060730083052"":4}","{""060730215001"":5,""060730076001"":4,""060730153021"":4,""060730083403"":4,""060730083391"":4,""060730083123"":4,""060730200273"":4,""060730083331"":4,""060730083581"":4,""060730040002"":4,""060730133102"":4,""060730094001"":4,""060730091061"":4,""060730083401"":4}",ALL OTH MISC AMBULATORY HEALTH CARE SERVICES,REGENTS PARK ROW,32.87266911,-117.2171364,"{'04013610900': 8, '06073020107': 4, '06073008333': 4, '06037553901': 4, '06073008363': 4, '06073008343': 4, '06073008341': 4, '06073008364': 4, '06073017055': 4, '06073003101': 4, '04009961201': 4, '06073008305': 4}",0.7671214945903712
AJAY V SRIVASTAVA ,92101,60730058001.0,"{""060730133141"":4,""060730019001"":4,""060730058001"":4,""481130141271"":4}","{""371330004012"":4,""060730058001"":4,""060730170562"":4,""060730150004"":4,""320030034081"":4,""060590524184"":4,""481130141271"":4,""060730133141"":4}",OFFICES OF PHYSICIANS (EXC MENTAL HEALTH),KETTNER BLVD,32.72491728,-117.1698131,"{'06073013314': 4, '06073001900': 4, '06073005800': 4, '48113014127': 4}",0.6976559807200773
AJDM RUBS LLC,92130,60730083291.0,"{""060730083301"":5,""060730170291"":4,""060730083241"":4,""060730083273"":4,""060730083272"":4,""060730083293"":4}","{""060730083301"":5,""060730083273"":4,""060730083332"":4,""060730135061"":4}","PROFESSIONAL, SCIENTIFIC & TECHNICAL SERVICES",DEL MAR HEIGHTS RD,32.95495564,-117.2310454,"{'06073008330': 5, '06073017029': 4, '06073008324': 4, '06073008327': 4, '06073008329': 4}",0.4752514386570246
AJS SOLUTIONS LLC,92123,60730092011.0,"{""060730166072"":4,""060730010004"":4}",{},OTHER PERSONAL SERVICES,KEARNY VILLA RD,38.4947874,-85.2735673,"{'06073016607': 4, '06073001000': 4}",0.31796623813198555
AKRAMS SWAP MEET SPACE,92110,60730065001.0,"{""060730056001"":8,""060730206023"":7,""060730083441"":6,""530530713042"":6,""060730215001"":5,""060730083541"":4,""060070031003"":4,""060730054002"":4,""060730101071"":4,""060730100053"":4,""060730176011"":4,""040131125101"":4,""060730170422"":4,""060730091072"":4,""060730085041"":4,""060730208092"":4,""040190043221"":4,""060730031073"":4,""060730032093"":4,""060730083542"":4,""060650435072"":4,""060730101104"":4,""060650419061"":4,""060730068021"":4,""060730203061"":4,""060730133102"":4,""060730133101"":4,""060730068022"":4,""060730068011"":4,""060730068023"":4,""060730164025"":4,""060650427381"":4,""060730091011"":4,""060730141021"":4,""060730100012"":4}","{""060375438023"":10,""060730085111"":6,""060070031003"":4,""060730082001"":4,""060730089014"":4,""060730154044"":4,""060730100121"":4,""060730083461"":4,""060730173042"":4,""060730157013"":4,""060730165031"":4,""060730053003"":4,""060730133101"":4,""490490101131"":4,""060730154043"":4,""060730214001"":4,""060730204011"":4,""060730032084"":4,""060730100142"":4,""060730076005"":4,""060730100151"":4,""060650427381"":4,""060710100171"":4,""060730095111"":4,""060730170301"":4,""530330265001"":4,""060730043001"":4,""060730133102"":4,""060730166093"":4,""060650427331"":4,""060730197023"":4,""060730068011"":4,""060730068023"":4,""060730133141"":4,""060290054015"":4,""320030036211"":4,""060730117002"":4,""060730206023"":4,""060730170422"":4,""060730159022"":4,""060730074005"":4,""060730065001"":4,""060730032093"":4,""060730060001"":4,""060650446052"":4,""060730083542"":4,""060730025013"":4,""060710005043"":4,""060730101071"":4}",SWAP MEET VENDOR,SPORTS ARENA BLVD,32.75364931,-117.211393,"{'06073005600': 8, '06073020602': 7, '06073008344': 6, '53053071304': 6, '06073021500': 5, '06073008354': 4, '06007003100': 4, '06073005400': 4, '06073010107': 4, '06073010005': 4, '06073017601': 4, '04013112510': 4, '06073017042': 4, '06073009107': 4, '06073008504': 4, '06073020809': 4, '04019004322': 4, '06073003107': 4, '06073003209': 4, '06065043507': 4, '06073010110': 4, '06065041906': 4, '06073006802': 4, '06073020306': 4, '06073013310': 4, '06073006801': 4, '06073016402': 4, '06065042738': 4, '06073009101': 4, '06073014102': 4, '06073010001': 4}",0.9999406942815984
AL HAMDANI SWEETS,91978,60730135051.0,"{""060650432711"":4,""060730135032"":4,""060730159024"":4,""060730015001"":4,""060730136063"":4,""060730157032"":4,""060371066452"":4}","{""060730135032"":4,""060730159024"":4,""060730144002"":4,""060730136052"":4}",DIRECT SELLING ESTABLISHMENTS,SWEETWATER SPRINGS BLVD,32.74276243,-116.972514,"{'06065043271': 4, '06073013503': 4, '06073015902': 4, '06073001500': 4, '06073013606': 4, '06073015703': 4, '06037106645': 4}",0.8044706192212036
AL HINDI MARKET,92115,60730029031.0,"{""060730211003"":4,""060730032021"":4}","{""060730211003"":4}",CONVENIENCE STORES,UNIVERSITY AVE,32.75321612,-117.0630915,"{'06073021100': 4, '06073003202': 4}",0.8411869875725586
AL KARADY ANTIQUE,92108,60730096033.0,"{""060730094001"":5,""421212012003"":4}","{""421212010003"":4,""060730095022"":4}",MISCELLANEOUS DURABLE GOODS WHSLE,SAN DIEGO MISSION RD,32.78559368,-117.11243020000002,"{'06073009400': 5, '42121201200': 4}",0.17247005770512558
AL'S FOOD MARKET,92102,60730040004.0,"{""060730040004"":4,""060730041004"":4,""060730121021"":4,""060730041003"":4,""060730003004"":4,""060730056002"":4,""060730025022"":4,""060730119024"":4,""060730030012"":4}","{""060730040002"":5,""060730116012"":4,""060730024012"":4,""060730040003"":4,""060730040004"":4,""060730030012"":4}","BEER, WINE & LIQUOR STORES",K ST,32.70843253,-117.1304443,"{'06073004000': 4, '06073004100': 4, '06073012102': 4, '06073000300': 4, '06073005600': 4, '06073002502': 4, '06073011902': 4, '06073003001': 4}",0.9773573842704416
ALADDIN RESTAURANT ,92117,60730085051.0,"{""060730100042"":5,""060730083101"":4,""060730117002"":4,""060730213032"":4,""060730170301"":4}","{""060730221002"":4,""060730095102"":4,""060730167011"":4,""060730083101"":4,""060730085051"":4,""060730133131"":4,""060730171064"":4,""060730085071"":4}",FULL-SERVICE RESTAURANTS,CLAIREMONT MESA BLVD,32.8344217,-117.1751697,"{'06073010004': 5, '06073008310': 4, '06073011700': 4, '06073021303': 4, '06073017030': 4}",0.8329651661653867
ALADI GRILL,92119,60730098025.0,"{""060730129001"":6,""060730098053"":4,""060730150002"":4,""060730098013"":4,""060730030031"":4,""060730162012"":4,""060730031052"":4}","{""060730083403"":4,""060730098011"":4,""060730098025"":4,""060730098024"":4,""060730150004"":4,""060730030031"":4}",MOBILE FOOD SERVICES,LAKE MURRAY BLVD,32.79972141,-117.013146,"{'06073012900': 6, '06073009805': 4, '06073015000': 4, '06073009801': 4, '06073003003': 4, '06073016201': 4, '06073003105': 4}",0.9222474583959408
ALAMILLAS MEXICAN FOOD,92110,60730065001.0,"{""060730036022"":5,""060650432162"":4,""060730035022"":4,""060730087023"":4}","{""040210003131"":6,""060374821022"":5}",LIMITED-SERVICE RESTAURANTS,MIDWAY DR,32.75338902,-117.2170636,"{'06073003602': 5, '06065043216': 4, '06073003502': 4, '06073008702': 4}",0.8055375067001257
ALAN THRIEU VAN,92110,60730065001.0,"{""060730056001"":8,""060730206023"":7,""060730083441"":6,""530530713042"":6,""060730215001"":5,""060730083541"":4,""060070031003"":4,""060730054002"":4,""060730101071"":4,""060730100053"":4,""060730176011"":4,""040131125101"":4,""060730170422"":4,""060730091072"":4,""060730085041"":4,""060730208092"":4,""040190043221"":4,""060730031073"":4,""060730032093"":4,""060730083542"":4,""060650435072"":4,""060730101104"":4,""060650419061"":4,""060730068021"":4,""060730203061"":4,""060730133102"":4,""060730133101"":4,""060730068022"":4,""060730068011"":4,""060730068023"":4,""060730164025"":4,""060650427381"":4,""060730091011"":4,""060730141021"":4,""060730100012"":4}","{""060375438023"":10,""060730085111"":6,""060070031003"":4,""060730082001"":4,""060730089014"":4,""060730154044"":4,""060730100121"":4,""060730083461"":4,""060730173042"":4,""060730157013"":4,""060730165031"":4,""060730053003"":4,""060730133101"":4,""490490101131"":4,""060730154043"":4,""060730214001"":4,""060730204011"":4,""060730032084"":4,""060730100142"":4,""060730076005"":4,""060730100151"":4,""060650427381"":4,""060710100171"":4,""060730095111"":4,""060730170301"":4,""530330265001"":4,""060730043001"":4,""060730133102"":4,""060730166093"":4,""060650427331"":4,""060730197023"":4,""060730068011"":4,""060730068023"":4,""060730133141"":4,""060290054015"":4,""320030036211"":4,""060730117002"":4,""060730206023"":4,""060730170422"":4,""060730159022"":4,""060730074005"":4,""060730065001"":4,""060730032093"":4,""060730060001"":4,""060650446052"":4,""060730083542"":4,""060730025013"":4,""060710005043"":4,""060730101071"":4}",SWAP MEET VENDOR,SPORTS ARENA BLVD,32.75364931,-117.211393,"{'06073005600': 8, '06073020602': 7, '06073008344': 6, '53053071304': 6, '06073021500': 5, '06073008354': 4, '06007003100': 4, '06073005400': 4, '06073010107': 4, '06073010005': 4, '06073017601': 4, '04013112510': 4, '06073017042': 4, '06073009107': 4, '06073008504': 4, '06073020809': 4, '04019004322': 4, '06073003107': 4, '06073003209': 4, '06065043507': 4, '06073010110': 4, '06065041906': 4, '06073006802': 4, '06073020306': 4, '06073013310': 4, '06073006801': 4, '06073016402': 4, '06065042738': 4, '06073009101': 4, '06073014102': 4, '06073010001': 4}",0.9999406942815984
ALANS MARKET,92124,60730095021.0,"{""060730095092"":4,""060730095052"":4,""060730083522"":4,""060730153021"":4}","{""060730053002"":4,""060730095021"":4,""060730095052"":4}",GROCERY STORES,SANTO RD,32.83902516,-117.0979379,"{'06073009509': 4, '06073009505': 4, '06073008352': 4, '06073015302': 4}",0.5395763525544883
ALB FAMILY LLC,92129,60730170361.0,"{""060730170291"":4,""060730171101"":4,""060730170523"":4}","{""060650498002"":6,""060730083052"":5,""060730083373"":4,""120990077522"":4,""060730170291"":4,""060730170181"":4,""060730188025"":4,""060730170432"":4,""060730170552"":4,""060730170361"":4}",REAL ESTATE,BLACK MOUNTAIN RD,32.95804987,-117.1274498,"{'06073017029': 4, '06073017110': 4, '06073017052': 4}",0.3426566769319436
ALBA ALMENDAREZ,92110,60730065001.0,"{""060730056001"":8,""060730206023"":7,""060730083441"":6,""530530713042"":6,""060730215001"":5,""060730083541"":4,""060070031003"":4,""060730054002"":4,""060730101071"":4,""060730100053"":4,""060730176011"":4,""040131125101"":4,""060730170422"":4,""060730091072"":4,""060730085041"":4,""060730208092"":4,""040190043221"":4,""060730031073"":4,""060730032093"":4,""060730083542"":4,""060650435072"":4,""060730101104"":4,""060650419061"":4,""060730068021"":4,""060730203061"":4,""060730133102"":4,""060730133101"":4,""060730068022"":4,""060730068011"":4,""060730068023"":4,""060730164025"":4,""060650427381"":4,""060730091011"":4,""060730141021"":4,""060730100012"":4}","{""060375438023"":10,""060730085111"":6,""060070031003"":4,""060730082001"":4,""060730089014"":4,""060730154044"":4,""060730100121"":4,""060730083461"":4,""060730173042"":4,""060730157013"":4,""060730165031"":4,""060730053003"":4,""060730133101"":4,""490490101131"":4,""060730154043"":4,""060730214001"":4,""060730204011"":4,""060730032084"":4,""060730100142"":4,""060730076005"":4,""060730100151"":4,""060650427381"":4,""060710100171"":4,""060730095111"":4,""060730170301"":4,""530330265001"":4,""060730043001"":4,""060730133102"":4,""060730166093"":4,""060650427331"":4,""060730197023"":4,""060730068011"":4,""060730068023"":4,""060730133141"":4,""060290054015"":4,""320030036211"":4,""060730117002"":4,""060730206023"":4,""060730170422"":4,""060730159022"":4,""060730074005"":4,""060730065001"":4,""060730032093"":4,""060730060001"":4,""060650446052"":4,""060730083542"":4,""060730025013"":4,""060710005043"":4,""060730101071"":4}",JEWELRY STORES,SPORTS ARENA BLVD,32.75364931,-117.211393,"{'06073005600': 8, '06073020602': 7, '06073008344': 6, '53053071304': 6, '06073021500': 5, '06073008354': 4, '06007003100': 4, '06073005400': 4, '06073010107': 4, '06073010005': 4, '06073017601': 4, '04013112510': 4, '06073017042': 4, '06073009107': 4, '06073008504': 4, '06073020809': 4, '04019004322': 4, '06073003107': 4, '06073003209': 4, '06065043507': 4, '06073010110': 4, '06065041906': 4, '06073006802': 4, '06073020306': 4, '06073013310': 4, '06073006801': 4, '06073016402': 4, '06065042738': 4, '06073009101': 4, '06073014102': 4, '06073010001': 4}",0.9999406942815984
ALBERTO EXLUSIVES,92154,60730101101.0,"{""060730100092"":9,""060730135051"":8,""060730100142"":7,""060133462013"":4,""060730213032"":4,""060730032093"":4,""060730100034"":4,""060730129001"":4,""060730139051"":4,""060730101071"":4,""060730039022"":4,""060730128002"":4,""060730133102"":4,""060730167011"":4,""060730101073"":4,""060730101112"":4,""060730086001"":4,""060730098054"":4,""060730117001"":4,""060730009002"":4,""060730100131"":4,""060730131023"":4}","{""060730100142"":8,""060730129001"":6,""060730100093"":5,""060730031081"":5,""060730206011"":5,""060730104023"":4,""060730156012"":4,""060730103001"":4,""060730086001"":4,""060730133072"":4,""060730127002"":4,""060730033041"":4,""060730167011"":4,""060133462013"":4,""060730132051"":4,""060730157012"":4,""060730083103"":4,""060730092011"":4,""060730133141"":4,""060730016001"":4,""060730100121"":4,""060730083291"":4,""060730132063"":4,""060730009002"":4,""060730100092"":4}",SWAP MEET VENDOR,CORONADO AVE,32.779021,-117.1278616,"{'06073010009': 9, '06073013505': 8, '06073010014': 7, '06013346201': 4, '06073021303': 4, '06073003209': 4, '06073010003': 4, '06073012900': 4, '06073013905': 4, '06073010107': 4, '06073003902': 4, '06073012800': 4, '06073013310': 4, '06073016701': 4, '06073010111': 4, '06073008600': 4, '06073009805': 4, '06073011700': 4, '06073000900': 4, '06073010013': 4, '06073013102': 4}",0.9999942101458876
ALBERTO TORRES,92154,60730101101.0,"{""060730100092"":9,""060730135051"":8,""060730100142"":7,""060133462013"":4,""060730213032"":4,""060730032093"":4,""060730100034"":4,""060730129001"":4,""060730139051"":4,""060730101071"":4,""060730039022"":4,""060730128002"":4,""060730133102"":4,""060730167011"":4,""060730101073"":4,""060730101112"":4,""060730086001"":4,""060730098054"":4,""060730117001"":4,""060730009002"":4,""060730100131"":4,""060730131023"":4}","{""060730100142"":8,""060730129001"":6,""060730100093"":5,""060730031081"":5,""060730206011"":5,""060730104023"":4,""060730156012"":4,""060730103001"":4,""060730086001"":4,""060730133072"":4,""060730127002"":4,""060730033041"":4,""060730167011"":4,""060133462013"":4,""060730132051"":4,""060730157012"":4,""060730083103"":4,""060730092011"":4,""060730133141"":4,""060730016001"":4,""060730100121"":4,""060730083291"":4,""060730132063"":4,""060730009002"":4,""060730100092"":4}",SWAP MEET VENDOR,CORONADO AVE,32.779021,-117.1278616,"{'06073010009': 9, '06073013505': 8, '06073010014': 7, '06013346201': 4, '06073021303': 4, '06073003209': 4, '06073010003': 4, '06073012900': 4, '06073013905': 4, '06073010107': 4, '06073003902': 4, '06073012800': 4, '06073013310': 4, '06073016701': 4, '06073010111': 4, '06073008600': 4, '06073009805': 4, '06073011700': 4, '06073000900': 4, '06073010013': 4, '06073013102': 4}",0.9999942101458876
ALBERTO'S MEXICAN FOOD,92154,60730101102.0,"{""060730101063"":4,""060730101091"":4,""060730101121"":4,""060730091072"":4,""060730100142"":4,""060730101102"":4}","{""060730101121"":6,""060730133131"":4,""060730101102"":4,""060730159024"":4,""060730101063"":4}",LIMITED-SERVICE EATING PLACES,HOLLISTER ST,32.57294433,-117.0841537,"{'06073010106': 4, '06073010109': 4, '06073010112': 4, '06073009107': 4, '06073010014': 4, '06073010110': 4}",0.9754645784116094
ALBERTSON & DAVIDSON,92130,60730083332.0,"{""060730083331"":6,""060730083353"":4,""060590875033"":4,""060730083302"":4}","{""060374326012"":4,""060730200172"":4}",OFFICES OF LAWYERS,CARMEL MOUNTAIN RD,32.91859078,-117.2335608,"{'06073008333': 6, '06073008335': 4, '06059087503': 4, '06073008330': 4}",0.3415215436082698
ALBERTSONS #3179,92128,60730170141.0,"{""060730170201"":15,""060730170191"":14,""060730170062"":11,""060730170061"":9,""060730170153"":8,""060730170202"":8,""060730170192"":7,""060730203071"":6,""060730170402"":5,""060730170531"":4,""060730170302"":4,""060730170152"":4,""060730200232"":4,""060730170511"":4,""060730170212"":4,""060730208103"":4,""060730170544"":4,""060730208111"":4,""060730170141"":4,""060730170193"":4,""060730170142"":4,""060730191061"":4,""060730170413"":4}","{""060730170201"":11,""060730170061"":10,""060730170191"":9,""060730170153"":8,""060730170192"":6,""060730170202"":6,""060730170193"":6,""060730170544"":4,""060730170313"":4,""060730183002"":4,""060730170492"":4,""060730170512"":4,""060730170062"":4,""060730085111"":4,""060730170532"":4,""060730170511"":4,""060730170413"":4,""060730170152"":4,""060730170212"":4}",GROCERY (EXCEPT CONVENIENCE) STORES,RANCHO BERNARDO RD,33.01862062,-117.0614063,"{'06073017020': 15, '06073017019': 14, '06073017006': 11, '06073017015': 8, '06073020307': 6, '06073017040': 5, '06073017053': 4, '06073017030': 4, '06073020023': 4, '06073017051': 4, '06073017021': 4, '06073020810': 4, '06073017054': 4, '06073020811': 4, '06073017014': 4, '06073019106': 4, '06073017041': 4}",0.9683207954162384
ALBERTSONS #745,92101,60730052001.0,"{""060730052001"":6,""060730051001"":5,""060730101121"":4,""040131166071"":4,""060730047002"":4,""060730040002"":4,""517100009011"":4,""060730054004"":4,""061110076142"":4,""060730041002"":4,""060730052002"":4,""060730095073"":4,""060650427331"":4,""040130506111"":4}","{""060730052001"":6,""530330320102"":4,""060730051001"":4,""060730051002"":4,""060730100142"":4,""060730095073"":4,""060730022021"":4,""040133199022"":4,""060730039021"":4,""060710087083"":4,""060730079031"":4,""060730085013"":4,""061110076142"":4,""060730168101"":4}",GROCERY (EXCEPT CONVENIENCE) STORES,14TH ST,32.71213244,-117.1518683,"{'06073005200': 6, '06073005100': 5, '06073010112': 4, '04013116607': 4, '06073004700': 4, '06073004000': 4, '51710000901': 4, '06073005400': 4, '06111007614': 4, '06073004100': 4, '06073009507': 4, '06065042733': 4, '04013050611': 4}",0.9891292446851362
ALE TALES TAPROOM,92101,60730051001.0,"{""060730100012"":4,""060650427381"":4}","{""530350812001"":4}",FULL-SERVICE RESTAURANTS,J ST,32.709423,-117.15012,"{'06073010001': 4, '06065042738': 4}",0.5139701989014385
ALEJANDRO R MIYAI,92154,60730101101.0,"{""060730100092"":9,""060730135051"":8,""060730100142"":7,""060133462013"":4,""060730213032"":4,""060730032093"":4,""060730100034"":4,""060730129001"":4,""060730139051"":4,""060730101071"":4,""060730039022"":4,""060730128002"":4,""060730133102"":4,""060730167011"":4,""060730101073"":4,""060730101112"":4,""060730086001"":4,""060730098054"":4,""060730117001"":4,""060730009002"":4,""060730100131"":4,""060730131023"":4}","{""060730100142"":8,""060730129001"":6,""060730100093"":5,""060730031081"":5,""060730206011"":5,""060730104023"":4,""060730156012"":4,""060730103001"":4,""060730086001"":4,""060730133072"":4,""060730127002"":4,""060730033041"":4,""060730167011"":4,""060133462013"":4,""060730132051"":4,""060730157012"":4,""060730083103"":4,""060730092011"":4,""060730133141"":4,""060730016001"":4,""060730100121"":4,""060730083291"":4,""060730132063"":4,""060730009002"":4,""060730100092"":4}",SWAP MEET VENDOR,CORONADO AVE,32.779021,-117.1278616,"{'06073010009': 9, '06073013505': 8, '06073010014': 7, '06013346201': 4, '06073021303': 4, '06073003209': 4, '06073010003': 4, '06073012900': 4, '06073013905': 4, '06073010107': 4, '06073003902': 4, '06073012800': 4, '06073013310': 4, '06073016701': 4, '06073010111': 4, '06073008600': 4, '06073009805': 4, '06073011700': 4, '06073000900': 4, '06073010013': 4, '06073013102': 4}",0.9999942101458876
ALEX CLEANERS,92124,60730095102.0,"{""060730095052"":4}",{},DRYCLEANING & LAUNDRY SERVICES (EXC COIN-OP),TIERRASANTA BLVD,32.82327292,-117.10375220000002,{'06073009505': 4},0.10299791126296264
ALEX RIIS & ASSOCIATES INC,92109,60730079032.0,"{""060730079032"":4,""060730025013"":4,""060730080064"":4,""060730083103"":4}","{""060730170552"":4,""060730085051"":4,""060730083012"":4,""060730083103"":4,""060730034012"":4,""060730076007"":4,""060730119022"":4,""060730083112"":4,""060730083101"":4,""060730078003"":4}",LIMITED-SERVICE RESTAURANTS,GARNET AVE,32.80099498,-117.2356213,"{'06073007903': 4, '06073002501': 4, '06073008006': 4, '06073008310': 4}",0.6532958688713473
ALEXANDER KARETNY,92110,60730065001.0,"{""060730056001"":8,""060730206023"":7,""060730083441"":6,""530530713042"":6,""060730215001"":5,""060730083541"":4,""060070031003"":4,""060730054002"":4,""060730101071"":4,""060730100053"":4,""060730176011"":4,""040131125101"":4,""060730170422"":4,""060730091072"":4,""060730085041"":4,""060730208092"":4,""040190043221"":4,""060730031073"":4,""060730032093"":4,""060730083542"":4,""060650435072"":4,""060730101104"":4,""060650419061"":4,""060730068021"":4,""060730203061"":4,""060730133102"":4,""060730133101"":4,""060730068022"":4,""060730068011"":4,""060730068023"":4,""060730164025"":4,""060650427381"":4,""060730091011"":4,""060730141021"":4,""060730100012"":4}","{""060375438023"":10,""060730085111"":6,""060070031003"":4,""060730082001"":4,""060730089014"":4,""060730154044"":4,""060730100121"":4,""060730083461"":4,""060730173042"":4,""060730157013"":4,""060730165031"":4,""060730053003"":4,""060730133101"":4,""490490101131"":4,""060730154043"":4,""060730214001"":4,""060730204011"":4,""060730032084"":4,""060730100142"":4,""060730076005"":4,""060730100151"":4,""060650427381"":4,""060710100171"":4,""060730095111"":4,""060730170301"":4,""530330265001"":4,""060730043001"":4,""060730133102"":4,""060730166093"":4,""060650427331"":4,""060730197023"":4,""060730068011"":4,""060730068023"":4,""060730133141"":4,""060290054015"":4,""320030036211"":4,""060730117002"":4,""060730206023"":4,""060730170422"":4,""060730159022"":4,""060730074005"":4,""060730065001"":4,""060730032093"":4,""060730060001"":4,""060650446052"":4,""060730083542"":4,""060730025013"":4,""060710005043"":4,""060730101071"":4}",SWAP MEET VENDOR,SPORTS ARENA BLVD,32.75364931,-117.211393,"{'06073005600': 8, '06073020602': 7, '06073008344': 6, '53053071304': 6, '06073021500': 5, '06073008354': 4, '06007003100': 4, '06073005400': 4, '06073010107': 4, '06073010005': 4, '06073017601': 4, '04013112510': 4, '06073017042': 4, '06073009107': 4, '06073008504': 4, '06073020809': 4, '04019004322': 4, '06073003107': 4, '06073003209': 4, '06065043507': 4, '06073010110': 4, '06065041906': 4, '06073006802': 4, '06073020306': 4, '06073013310': 4, '06073006801': 4, '06073016402': 4, '06065042738': 4, '06073009101': 4, '06073014102': 4, '06073010001': 4}",0.9999406942815984
ALEXANDRA F SAGO,92101,60730054004.0,"{""060730051002"":4}","{""170318030153"":5,""060371349041"":4}","INDEPENDENT ARTISTS, WRITERS & PERFORMERS",THE MARK LN,32.7109385,-117.1565019,{'06073005100': 4},0.4507689340387865
ALEXANDRA'S SALON,92154,60730101071.0,"{""060730133141"":4,""060730203041"":4,""060730101071"":4}","{""060730101071"":4}",BEAUTY SHOPS - BOOTH RENTAL,PALM AVE,32.583463800000004,-117.0845125,"{'06073013314': 4, '06073020304': 4, '06073010107': 4}",0.7587364160776067
ALEXANDRAS BEAUTY SALON,92154,60730101071.0,"{""060730133141"":4,""060730203041"":4,""060730101071"":4}","{""060730101071"":4}",BEAUTY SHOPS - BOOTH RENTAL,PALM AVE,32.583463800000004,-117.0845125,"{'06073013314': 4, '06073020304': 4, '06073010107': 4}",0.7587364160776067
ALEYAH R ZAMORA,92123,60730085111.0,"{""060730083502"":9,""060730083131"":4,""060730085111"":4,""060730134191"":4,""060730208093"":4,""060730093012"":4,""060730154053"":4,""060730186121"":4}","{""060730085111"":5,""060730093012"":5,""060730208093"":4}",NUDE ENTERTAINMENT BUSINESS,KEARNY VILLA RD,32.8351975,-117.1378867,"{'06073008350': 9, '06073008313': 4, '06073008511': 4, '06073013419': 4, '06073020809': 4, '06073009301': 4, '06073015405': 4, '06073018612': 4}",0.8353744737658169
